long,lat,id,name,pop,area,hex_long,hex_lat,hex_id,distance
144.9626250427989,-37.81373060337506,699,Melbourne,41473,2.369,145.02112402300006,-37.658562168999936,2828,17977.29245204277
115.98000716753141,-31.7901760795201,1806,Ellenbrook,37251,37.7884,115.92112402300006,-31.658562168999936,5451,15623.669119721444
144.64663523531388,-37.82669254984309,966,Tarneit,36532,62.142,144.57112402300007,-37.95856216899993,2690,16073.02583589544
151.20676893492129,-33.90966881594098,348,Waterloo - Beaconsfield,35323,3.5809,151.17112402300006,-33.75856216899994,4616,17081.667760904144
115.82249534389004,-32.36488638399784,1932,Baldivis,34287,141.544,115.92112402300006,-32.25856216899994,5179,15009.26007326502
115.86278847418652,-31.950444965350204,1788,Perth City,33898,10.9161,115.77112402300007,-31.958562168999936,5314,8712.833356313831
150.91771134073866,-33.71034700652541,319,Parklea - Kellyville Ridge,33702,9.8132,150.87112402300008,-33.75856216899994,4615,6873.00268803943
145.00402944855597,-37.822870712232515,721,Richmond (Vic.),32848,6.2125,144.87112402300008,-37.95856216899993,2691,19065.747546101895
145.20974031957851,-38.03037578068305,910,Dandenong,32801,61.8243,145.17112402300006,-37.95856216899993,2692,8662.591405257022
153.24146274448844,-27.86109088422795,1299,Upper Coomera - Willow Vale,32210,125.8424,153.27112402300006,-27.758562168999937,7343,11731.140189137344
151.10554630417377,-33.914487407333276,378,Canterbury (South) - Campsie,32017,4.7777,151.02112402300006,-34.058562168999934,4480,17782.77165886538
153.0318640594118,-27.2335804936176,1432,North Lakes - Mango Hill,31141,27.1609,152.97112402300007,-27.158562168999936,7614,10262.141616122903
151.01725246199288,-33.82156927048667,515,Parramatta - Rosehill,30741,8.4965,150.72112402300007,-34.058562168999934,4479,37954.260497558935
151.24471797234835,-33.82932740302591,434,Mosman,30215,8.6503,151.47112402300007,-33.75856216899994,4617,22388.46009134822
151.18810742892364,-33.79766534610645,415,Chatswood (East) - Artarmon,29996,5.0678,151.32112402300007,-34.058562168999934,4481,31443.137780701625
151.20765738959508,-33.86818721039829,347,Sydney - Haymarket - The Rocks,29970,4.2934,151.62112402300005,-34.058562168999934,4482,43661.384973068336
150.98019288311335,-33.83074771684279,509,Merrylands - Holroyd,29836,6.7188,150.57112402300007,-33.75856216899994,4614,38720.50767361833
145.4897695794645,-38.09428869528668,888,Pakenham - South,29485,49.7574,145.47112402300007,-37.95856216899993,2693,15153.479672561918
150.75320415566753,-34.05906899087651,454,Mount Annan - Currans Hill,29235,26.134,150.42112402300006,-34.058562168999934,4478,30659.09448048944
144.90743721320587,-37.75082267923627,691,Essendon - Aberfeldie,28954,8.443,144.72112402300007,-37.658562168999936,2827,19360.00095206894
152.96568773681622,-27.61799405640614,1315,Forest Lake - Doolandella,28853,15.0377,152.97112402300007,-27.758562168999937,7342,15585.319775003485
150.9158337884068,-33.92337736175913,555,Liverpool,28680,6.3185,150.87112402300008,-34.35856216899994,4343,48446.71400215509
152.89872885256776,-31.478843363592638,165,Port Macquarie - East,28670,42.088,152.97112402300007,-31.35856216899994,5710,15007.657726680656
151.11216967684203,-33.81046129360005,529,Ryde,28506,7.2682,151.02112402300006,-33.45856216899993,4752,39933.223354525435
145.02161417811985,-37.7150403969643,785,Reservoir - East,28460,8.9663,145.32112402300007,-37.658562168999936,2829,27152.615333017144
151.04691460070103,-33.773780976478655,500,Carlingford,28396,9.7457,151.32112402300007,-33.45856216899993,4753,43241.536922235115
144.97994024867384,-37.86239609636675,710,St Kilda,28141,3.901,145.02112402300006,-38.25856216899994,2556,44120.47532434079
151.081262767882,-33.76894504613679,520,Epping - North Epping,28110,8.8806,150.72112402300007,-33.45856216899993,4751,47980.31928816943
151.60036830995682,-32.75436223972342,114,Maitland - East,28091,40.5895,151.62112402300005,-32.85856216899994,5026,11717.746411017799
151.166110748824,-33.821312210986285,417,Lane Cove - Greenwich,27960,9.0561,151.77112402300006,-33.75856216899994,4618,56463.66332703985
151.16101327168562,-33.88135231114882,404,Leichhardt - Annandale,27957,4.4723,151.17112402300006,-34.35856216899994,4344,52940.357391466074
151.15560060821394,-33.91121262240774,336,Marrickville,27924,5.8127,151.47112402300007,-34.35856216899994,4345,57525.78663270661
151.12071062334437,-33.95530808967937,392,Bexley,27881,5.2778,150.57112402300007,-34.35856216899994,4342,67596.61164143434
144.7742900724277,-37.787408047909345,930,Deer Park - Derrimut,27772,21.3348,144.42112402300006,-37.658562168999936,2826,34263.77776645908
144.96397061614974,-37.74484532507756,685,Coburg,27733,6.9346,144.87112402300008,-37.35856216899994,2963,43649.48230897711
144.6969056667684,-37.59275957661707,829,Sunbury - South,27706,131.1359,144.57112402300007,-37.35856216899994,2962,28273.23994589706
152.97147222179746,-27.063254101262128,1407,Caboolture,27635,74.4529,153.12112402300005,-26.858562168999935,7751,27113.454696057655
144.86435616310382,-37.75164510645556,815,Keilor East,27556,10.8916,145.17112402300006,-37.35856216899994,2964,51361.76548998183
145.16398455873713,-38.01458295079879,913,Keysborough,27377,30.2794,145.32112402300007,-38.25856216899994,2557,30383.591172746088
151.25606859907074,-33.92153530852602,358,Coogee - Clovelly,27325,3.8356,151.62112402300005,-33.45856216899993,4754,61501.84394128626
146.58893032719823,-38.19451008693207,674,Traralgon,27325,149.6729,146.52112402300006,-38.25856216899994,2561,9262.83344883097
150.93758187542142,-33.824157040659614,506,Greystanes - Pemulwuy,27324,11.8487,150.27112402300006,-33.75856216899994,4613,62150.0067601404
151.05851353107394,-33.90437593909994,370,Greenacre - Mount Lewis,27280,6.9817,150.42112402300006,-33.45856216899993,4750,77060.91563901163
144.96113896015237,-37.76648811759919,682,Brunswick,27123,5.1425,144.72112402300007,-38.25856216899994,2555,58543.14936848148
145.34808668794543,-38.06115706909839,890,Berwick - South,26930,14.8552,145.62112402300005,-38.25856216899994,2558,32446.250988577394
144.32551063808015,-38.053742613919326,615,Corio - Norlane,26894,80.8135,144.27112402300006,-37.95856216899993,2689,11594.096547054161
145.26861763715726,-38.038490837709254,903,Hampton Park - Lynbrook,26871,13.3423,145.77112402300006,-37.95856216899993,2694,45021.60674443825
115.32984745694667,-33.67599706367648,1747,Busselton,26828,196.2398,115.47112402300007,-33.75856216899994,4497,15979.607018184248
145.34222642729324,-38.10446554092674,899,Cranbourne East,26826,42.8901,145.47112402300007,-38.558562168999934,2421,51649.208328634966
151.24922457395854,-33.87764599096796,353,Double Bay - Bellevue Hill,26781,4.714,151.92112402300006,-34.058562168999934,4483,65260.18626342217
151.21225411725402,-33.79965929830148,419,Willoughby - Castle Cove - Northbridge,26738,10.7518,151.17112402300006,-33.158562168999936,4888,71205.70139998279
115.8344813484773,-31.76525483690649,1855,Wanneroo,26539,41.6742,115.62112402300006,-31.658562168999936,5450,23429.938956479342
153.04381868775098,-27.85496804225035,1363,Jimboomba,26536,249.6587,153.12112402300005,-28.058562168999934,7207,23808.767485129636
115.84754431276303,-31.80509678778101,1850,Madeley - Darch - Landsdale,26522,20.3512,116.07112402300007,-31.958562168999936,5315,27148.889893473035
150.99331648659896,-33.95548649142939,372,Panania - Milperra - Picnic Point,26461,14.3909,151.02112402300006,-34.658562168999936,4208,78029.60751183581
151.21921115610192,-33.73231792114606,447,Frenchs Forest - Belrose,26366,30.1321,151.47112402300007,-33.158562168999936,4889,67808.13952979361
151.28944951867965,-33.75602848030072,445,Dee Why - North Curl Curl,26354,4.0732,151.92112402300006,-33.45856216899993,4755,67271.82316877555
115.93174128656528,-31.965300704564132,1872,Rivervale - Kewdale - Cloverdale,26352,10.2384,116.37112402300006,-31.958562168999936,5316,41543.85814649986
145.0002579354674,-37.77236949628363,688,Northcote,26334,6.145,145.62112402300005,-37.658562168999936,2830,56182.49175902007
145.03412679514003,-37.803721411311436,730,Kew,26314,10.534,145.47112402300007,-37.35856216899994,2965,62697.62955628337
151.1823180877551,-33.89384281926832,342,Newtown - Camperdown - Darlington,26297,3.2812,151.77112402300006,-34.35856216899994,4346,74883.02791162572
151.0857509316863,-33.79190242605594,522,Eastwood - Denistone,26256,7.8201,150.87112402300008,-33.158562168999936,4887,73020.71977567658
151.08175890683327,-33.878680803102,413,Strathfield,26212,6.4515,151.32112402300007,-34.658562168999936,4209,89271.16565600027
151.0891346282887,-33.84358024524119,400,Concord West - North Strathfield,26116,5.103,150.57112402300007,-33.158562168999936,4886,89939.53027819168
151.29403531575932,-33.72923396439016,450,Narrabeen - Collaroy,25903,7.1622,152.07112402300007,-33.75856216899994,4619,72081.64647662087
151.10941449795243,-33.87811041319724,407,Burwood - Croydon,25879,4.4925,150.12112402300005,-34.058562168999934,4477,93506.84154466617
150.9463275571432,-33.89892894360585,541,Cabramatta - Lansvale,25844,7.5964,150.27112402300006,-34.35856216899994,4341,80490.76480398871
151.20149244461845,-33.92956875178369,332,Mascot - Eastlakes,25736,6.165,151.62112402300005,-34.658562168999936,4210,89617.60057225895
151.12624766878704,-33.88976780914895,406,Ashfield,25655,3.6699,150.72112402300007,-34.658562168999936,4207,93080.476426374
150.93913712984528,-33.76190362195175,314,Lalor Park - Kings Langley,25611,11.7998,150.12112402300005,-33.45856216899993,4749,83038.45365876437
151.2440054470322,-33.97225285078519,359,Malabar - La Perouse - Chifley,25405,11.8254,152.07112402300007,-34.35856216899994,4347,87479.91124236895
144.9939268568844,-37.70977196842247,786,Reservoir - West,25295,10.1544,145.02112402300006,-37.058562168999934,3100,72312.25743758118
115.87103313013137,-31.886813157455084,1833,Dianella,25276,11.4949,115.47112402300007,-31.958562168999936,5313,38649.20565769696
151.1057500650865,-33.98476447542707,390,South Hurstville - Blakehurst,25248,6.2489,150.42112402300006,-34.658562168999936,4206,97757.14795999731
151.29785573886073,-33.68609549407599,442,Warriewood - Mona Vale,25179,11.6627,151.77112402300006,-33.158562168999936,4890,73216.49322731466
138.64403623189224,-34.84909142720154,1608,Northgate - Oakden - Gilles Plains,25155,11.2336,138.57112402300007,-34.95856216899993,4030,13852.370736379618
151.1181935885599,-33.92831071343392,379,Kingsgrove (North) - Earlwood,25014,8.2016,152.22112402300007,-34.058562168999934,4484,102923.82337735355
144.734467781132,-37.83276612379271,967,Truganina,24977,27.1648,144.42112402300006,-38.25856216899994,2554,54682.166165619834
153.4233424367135,-28.002452227116834,1312,Surfers Paradise,24969,5.7961,153.42112402300006,-28.058562168999934,7208,6221.577625141629
145.0603066480947,-38.230405528381596,985,Mornington,24894,21.0928,145.17112402300006,-38.558562168999934,2420,37690.24523249196
151.100629523881,-33.959473941436755,384,Hurstville,24845,3.6401,149.97112402300007,-33.75856216899994,4612,106873.21528749498
151.07340838709962,-33.97089400009523,385,Mortdale - Penshurst,24794,6.1164,151.92112402300006,-34.658562168999936,4211,109117.85742294118
145.19591410680724,-38.16259890295685,979,Langwarrin,24792,37.6199,144.87112402300008,-38.558562168999934,2419,52322.46979606331
150.9256246944207,-33.79332710119415,315,Seven Hills - Toongabbie,24788,11.2033,150.27112402300006,-33.158562168999936,4885,93044.43646527364
138.55056323538255,-34.95790525616358,1679,Plympton,24785,10.6969,138.27112402300006,-34.95856216899993,4029,25523.452168060674
146.93329488826944,-36.16898375309778,651,Wodonga,24773,278.8131,146.97112402300007,-36.158562168999936,3514,3594.9293521916684
145.03170804923423,-37.824507926326774,728,Hawthorn,24700,5.6721,145.92112402300006,-37.658562168999936,2831,80530.06652054784
151.70807798691962,-32.97569145449432,210,Charlestown - Dudley,24689,22.2796,151.92112402300006,-32.85856216899994,5027,23788.518464112145
144.93202156650588,-37.72299752174169,824,Pascoe Vale,24631,6.9844,144.27112402300006,-37.35856216899994,2961,71047.01108382292
152.98992205403349,-27.23961857163501,1430,Dakabin - Kallangur,24631,16.637,153.12112402300005,-27.458562168999936,7479,27514.834417713744
143.86201900139451,-37.59320674623163,581,Ballarat - South,24603,32.8541,143.82112402300007,-37.658562168999936,2824,8102.308212136915
151.1876314262341,-34.028763946711834,564,Cronulla - Kurnell - Bundeena,24583,25.0865,151.17112402300006,-34.95856216899993,4072,103150.8165411081
149.5589876064291,-33.39913246815952,57,Bathurst,24541,119.5048,149.52112402300006,-33.45856216899993,4747,7472.879107197446
150.7066364431518,-33.70043901011415,477,Castlereagh - Cranebrook,24472,71.5174,149.82112402300007,-33.45856216899993,4748,86477.43874438852
144.73754609784478,-37.886057726029044,971,Point Cook - North,24415,8.4906,144.12112402300005,-37.658562168999936,2825,59893.136063179256
144.99572119456806,-37.908295584724485,747,Brighton (Vic.),24297,8.2005,144.57112402300007,-38.558562168999934,2418,81189.3188571377
115.71007241677349,-31.652053333368873,1846,Butler - Merriwa - Ridgewood,24274,9.5699,115.77112402300007,-31.35856216899994,5586,33053.06173548874
144.54090934434586,-37.841477989902266,969,Wyndham Vale,24269,128.2408,143.97112402300007,-37.95856216899993,2688,51772.81440147593
150.89369888410224,-33.985218733026365,461,Macquarie Fields - Glenfield,24259,16.0182,149.97112402300007,-34.35856216899994,4340,94607.02736630084
144.54759124679944,-37.740151139196776,956,Melton South,24237,110.9612,143.97112402300007,-37.35856216899994,2960,66247.1751666239
152.941447355172,-27.381084836601755,1428,The Hills District,24231,31.6238,152.82112402300007,-27.458562168999936,7478,14672.05884426581
151.20137584154241,-33.892399692754324,345,Redfern - Chippendale,24207,2.1631,152.22112402300007,-33.45856216899993,4756,106105.98572771843
153.39318924854527,-28.07063152127371,1302,Robina,24187,14.9592,153.27112402300006,-28.35856216899994,7071,34083.48624328529
151.6677138521192,-30.50307740167612,188,Armidale,24114,274.5995,151.62112402300005,-30.458562168999936,6114,6660.680281956598
145.00392977359002,-37.662945751502846,798,Lalor,24114,12.0595,144.72112402300007,-37.058562168999934,3099,71601.47969539986
144.46805801659912,-38.24835606669116,627,Ocean Grove - Barwon Heads,24102,156.9794,144.12112402300005,-38.25856216899994,2553,30389.16561904871
151.17600978012973,-33.777861600175164,427,Lindfield - Roseville,24098,11.8766,151.32112402300007,-32.85856216899994,5025,102846.81649289203
151.65999937253858,-32.94233801234277,211,Glendale - Cardiff - Hillsborough,24053,21.9175,151.77112402300006,-32.558562168999934,5162,43814.573168667855
150.76665336098847,-34.5224838482722,129,Dapto - Avondale,24045,56.6003,150.87112402300008,-34.95856216899993,4071,49311.81839841924
151.29807212845634,-33.529143754647485,39,Umina - Booker Bay - Patonga,24037,25.2284,151.02112402300006,-32.85856216899994,5024,78726.060124454
115.93007606953637,-32.08609825028544,1883,Canning Vale - East,24022,9.9338,116.22112402300006,-32.25856216899994,5180,33455.78236444785
145.15687873974144,-37.71456649206397,789,Eltham,23951,19.4881,145.77112402300006,-37.35856216899994,2966,67145.57020546359
115.95495369335254,-32.06005872338017,1887,Thornlie,23925,11.591,115.62112402300006,-32.25856216899994,5178,38420.852364917104
115.91272931133194,-31.914329114875017,1792,Bayswater - Embleton - Bedford,23881,13.8115,116.22112402300006,-31.658562168999936,5452,40711.39212988943
145.34867968373098,-38.02519166424637,889,Berwick - North,23870,19.748,145.92112402300006,-38.25856216899994,2559,56474.77417438737
145.037983594342,-37.919524515728014,752,Bentleigh - McKinnon,23869,6.2242,146.07112402300007,-37.95856216899993,2695,90924.6282090881
145.13203103007285,-37.91597928878072,920,Clayton,23855,9.4112,145.77112402300006,-38.558562168999934,2422,90653.31457273224
150.95739698382587,-33.711910221818655,304,Kellyville,23834,10.641,150.72112402300007,-32.85856216899994,5023,97165.93224125204
144.3191710618929,-38.219841104098776,618,Grovedale,23763,55.7048,144.27112402300006,-38.558562168999934,2417,37831.871338866506
145.214388269846,-37.9559682486519,911,Dandenong North,23728,9.459,146.22112402300007,-38.25856216899994,2560,94469.84542654354
138.60010732626566,-34.85426082748011,1607,Enfield - Blair Athol,23676,15.1765,138.72112402300007,-34.658562168999936,4167,24373.448899954517
151.28836150237402,-33.802825269954496,438,Manly - Fairlight,23669,6.7351,152.37112402300008,-33.75856216899994,4620,100410.19550513283
150.98837300861643,-33.75997159731287,294,Baulkham Hills (East),23665,8.3081,149.82112402300007,-34.058562168999934,4476,112919.35248718986
145.4325081945725,-36.430437188827746,1023,Shepparton - South,23661,143.2741,145.32112402300007,-36.45856216899993,3373,10462.798574633049
150.89109634541336,-33.72412480926454,322,Quakers Hill,23593,7.7675,150.42112402300006,-32.85856216899994,5022,105505.48023521903
145.13946933471996,-38.1539618422308,976,Frankston,23451,11.6244,145.02112402300006,-38.85856216899994,2284,78890.9723556478
143.89951841210117,-37.52720488791203,580,Ballarat - North,23448,92.3577,143.67112402300006,-37.35856216899994,2959,27546.82184061902
150.87215760732022,-33.7653263668554,313,Doonside - Woodcroft,23426,9.9106,149.97112402300007,-33.158562168999936,4884,107448.28630287801
150.81293633364297,-33.76503379715262,327,Mount Druitt - Whalan,23382,8.6855,149.67112402300006,-33.75856216899994,4611,105785.15402466412
144.9273045871054,-37.70299305412914,825,Glenroy,23354,8.8582,145.32112402300007,-37.058562168999934,3101,79571.79976477248
145.06615861078393,-37.96111286781842,767,Cheltenham - Highett (East),23352,8.7377,145.32112402300007,-38.85856216899994,2285,102076.56845483983
151.19506837204904,-33.873164633267464,344,Pyrmont - Ultimo,23339,1.4913,152.07112402300007,-33.158562168999936,4891,113605.06778641224
149.71948426791081,-34.75062074651849,21,Goulburn,23320,64.7865,149.82112402300007,-34.658562168999936,4204,13820.350282812002
150.92107694048616,-33.663050103151285,310,Rouse Hill - Beaumont Hills,23302,36.6725,150.12112402300005,-32.85856216899994,5021,116260.04462509303
151.48357499708348,-32.68466707701798,116,Maitland - West,23179,175.4357,151.47112402300007,-32.558562168999934,5161,14032.86567654086
144.93673558712172,-37.62970253496525,836,Roxburgh Park - Somerton,23136,12.2902,144.42112402300006,-37.058562168999934,3098,78135.7624664327
146.66897672527685,-19.231219105313883,1516,Deeragun,23125,66.0566,146.67112402300006,-19.358562168999935,11129,14097.077258510784
151.0121998878661,-33.798910172988684,512,North Parramatta,23066,7.0608,150.12112402300005,-34.658562168999936,4205,125829.5640013431
151.2240367165232,-33.87032393506564,343,Potts Point - Woolloomooloo,22990,1.4591,152.37112402300008,-34.35856216899994,4348,118884.49057917023
153.00990351110934,-27.17832852930231,1415,Deception Bay,22984,31.878,153.27112402300006,-27.158562168999936,7615,25981.885499134612
145.32552369494263,-37.781344021624484,877,Mooroolbark,22960,12.5434,146.22112402300007,-37.658562168999936,2832,80130.88668317127
145.1579351179273,-37.94569340758305,915,Springvale,22953,11.1052,146.07112402300007,-37.35856216899994,2967,103636.51761088167
145.28631937390048,-37.856215704520565,851,Boronia,22936,11.2631,145.62112402300005,-37.058562168999934,3102,93350.44101827865
151.1449458158966,-33.936824974329866,391,Arncliffe - Bardwell Valley,22911,4.9926,151.47112402300007,-34.95856216899993,4073,117234.15270668913
138.48202767675485,-35.19851423054925,1659,Seaford (SA),22857,23.5763,138.42112402300006,-35.25856216899994,3894,8667.190736584093
145.16458366752565,-38.34572247909307,984,Hastings - Somers,22806,108.884,144.72112402300007,-38.85856216899994,2283,68797.38549600304
151.11913595242922,-33.778661872527245,525,Macquarie Park - Marsfield,22784,10.672,152.52112402300006,-34.058562168999934,4485,133314.18484590895
150.98827673560402,-33.90119363483415,367,Bass Hill - Georges Hall,22770,8.9161,150.57112402300007,-34.95856216899993,4070,123397.80956875508
144.28610197411234,-38.17785235020736,619,Highton,22714,40.587,143.82112402300007,-38.25856216899994,2552,41694.174128781015
151.10570659219383,-33.854233026866844,399,Concord - Mortlake - Cabarita,22706,6.3192,152.22112402300007,-34.658562168999936,4212,136069.8190895073
144.99565415614074,-37.83983818884703,714,South Yarra - East,22677,2.5172,144.12112402300005,-37.058562168999934,3097,116217.79170822086
152.93710155516916,-26.321039885017488,1487,Noosa Hinterland,22667,820.066,152.82112402300007,-26.258562168999937,8022,13493.598924677739
115.90975031371234,-31.88784305114171,1794,Morley,22648,10.5547,116.07112402300007,-31.35856216899994,5587,60648.53491732017
150.96741664651813,-33.79185134326612,516,Toongabbie - Constitution Hill,22602,7.4795,149.67112402300006,-34.35856216899994,4339,135160.69806859107
145.07395847916075,-37.83837087482098,726,Camberwell,22567,7.2919,145.92112402300006,-37.058562168999934,3103,114497.0788003176
151.27518289320832,-33.886874794444296,350,Bondi Beach - North Bondi,22559,2.4605,152.52112402300006,-33.45856216899993,4757,124932.41919283851
145.0660685917937,-37.87690356509119,774,Malvern East,22543,7.5668,146.37112402300008,-37.95856216899993,2696,115114.9395440899
145.10116394064684,-37.90838305248448,926,Oakleigh - Huntingdale,22537,10.1702,146.07112402300007,-38.558562168999934,2423,111447.2244286988
151.49474299900692,-33.25788313608337,47,Gorokan - Kanwal - Charmhaven,22489,11.249,152.22112402300007,-32.85856216899994,5028,81014.85112232083
145.15306270150907,-37.81650866416178,739,Blackburn,22480,8.6077,145.17112402300006,-36.75856216899994,3236,117421.28514891754
145.5986652664736,-38.516552306122954,670,Wonthaggi - Inverloch,22452,728.7626,145.62112402300005,-38.85856216899994,2286,38015.540995651034
151.36208618529724,-32.83184784580619,107,Cessnock,22426,68.9813,151.17112402300006,-32.558562168999934,5160,35201.215279251854
137.53652592911817,-33.041382964729166,1708,Whyalla,22424,40.8707,137.67112402300006,-33.158562168999936,4843,18076.340322099142
150.7486068784804,-33.527218102119555,308,Kurrajong Heights - Ebenezer,22420,331.85,150.87112402300008,-32.558562168999934,5159,108032.20101442796
153.06718723056204,-27.62828485523875,1114,Calamvale - Stretton,22418,19.736,153.42112402300006,-27.458562168999936,7480,39697.75931336563
151.46745868384454,-33.379366357085146,43,Bateau Bay - Killarney Vale,22412,10.8595,152.37112402300008,-33.158562168999936,4892,87684.63388245832
151.27832950927657,-33.77113420382461,448,Freshwater - Brookvale,22330,7.1838,152.67112402300006,-33.75856216899994,4621,129037.50031534956
151.16299693568777,-33.76066815206906,426,Gordon - Killara,22297,11.6714,151.77112402300006,-34.95856216899993,4074,144172.17568425572
138.6788630330513,-34.89851479888172,1587,Rostrevor - Magill,22241,9.9383,138.87112402300008,-34.95856216899993,4031,18787.596263322044
145.0229271815493,-37.87386876449898,754,Caulfield - North,22207,6.4189,143.67112402300006,-37.95856216899993,2687,119241.73437661336
150.59467366937633,-33.6903153225697,473,Springwood - Winmalee,22138,69.6647,149.67112402300006,-33.158562168999936,4883,104192.32619803313
144.9463507440566,-37.80127458552331,700,North Melbourne,22086,3.2492,144.87112402300008,-36.75856216899994,3235,115911.68986287016
151.16539355883825,-33.80129988574345,416,Chatswood (West) - Lane Cove North,22065,5.5372,150.57112402300007,-32.558562168999934,5158,148549.37035702335
145.17833920014255,-37.881500616572886,921,Glen Waverley - East,22027,9.1645,146.37112402300008,-37.35856216899994,2968,120240.57639481287
151.0501456036965,-33.811050548137366,501,Ermington - Rydalmere,22020,9.8654,149.52112402300006,-34.058562168999934,4475,144010.438027817
150.88544697372598,-34.391905051866154,145,Balgownie - Fairy Meadow,22018,12.2638,150.27112402300006,-34.95856216899993,4069,84387.63688194395
150.85458636734776,-34.41935337511783,147,Figtree - Keiraville,21976,18.8129,150.72112402300007,-35.25856216899994,3935,93893.1944097289
151.07054332168155,-34.009920605965874,570,Oyster Bay - Como - Jannali,21974,8.9053,151.02112402300006,-35.25856216899994,3936,138585.34651292223
145.12475920694777,-37.59609326894993,804,Doreen,21904,14.4616,145.47112402300007,-36.75856216899994,3237,97904.40396172645
151.00763813749145,-33.83796347641199,505,Granville - Clyde,21894,5.6083,149.37112402300008,-33.75856216899994,4610,151804.75080766395
147.33977147619623,-35.153633580394086,273,Wagga Wagga - South,21869,29.4358,147.42112402300006,-35.25856216899994,3924,13798.127356416207
145.12385099465214,-37.78488180240555,734,Doncaster,21864,8.7738,146.52112402300006,-37.658562168999936,2833,123986.91463397404
151.00176357876506,-33.85931630541039,507,Guildford - South Granville,21848,6.7962,149.97112402300007,-34.95856216899993,4068,154423.7320181101
150.67756731209664,-33.7863736061262,479,Glenmore Park - Regentville,21793,9.233,149.82112402300007,-32.85856216899994,5020,130183.01148411067
150.98230626280335,-33.54643408380346,305,Dural - Kenthurst - Wisemans Ferry,21705,377.5396,150.27112402300006,-32.558562168999934,5157,128118.90817898253
150.72496820728023,-34.0381386244427,453,Elderslie - Harrington Park,21700,21.5414,149.37112402300008,-34.35856216899994,4338,129749.05247980291
151.05164898546718,-33.93087024439857,380,Punchbowl,21693,5.2458,152.07112402300007,-34.95856216899993,4075,147557.9520542705
151.00136306839173,-34.02219797653935,569,Menai - Lucas Heights - Woronora,21692,33.4047,151.32112402300007,-35.25856216899994,3937,140247.89253486836
150.8431063246331,-33.78006943790672,329,Rooty Hill - Minchinbury,21661,14.6244,149.22112402300007,-34.058562168999934,4474,153138.97044449323
145.00754922288291,-37.68382052226017,801,Thomastown,21551,14.6852,144.57112402300007,-36.75856216899994,3234,109746.3417266689
150.93653747391835,-33.88448583326455,543,Canley Vale - Canley Heights,21546,5.4161,149.52112402300006,-34.658562168999936,4203,156085.11046587615
145.17583536042687,-38.09285375125115,975,Carrum Downs,21535,20.3079,145.92112402300006,-38.85856216899994,2287,107023.11349744297
150.97012752705135,-33.84530813220887,508,Guildford West - Merrylands West,21520,5.4654,150.42112402300006,-35.25856216899994,3934,164668.15807630873
151.1705935878129,-33.720836104597545,429,St Ives,21512,17.7776,152.67112402300006,-33.158562168999936,4893,152833.23119351576
150.77445365113772,-34.120380132149236,463,Rosemeadow - Glen Alpine,21512,48.0827,149.67112402300006,-34.95856216899993,4067,137488.42296805626
151.01973344241853,-33.902355039758156,374,Yagoona - Birrong,21505,5.5596,151.62112402300005,-35.25856216899994,3938,160241.57276557523
150.94404370246997,-33.9914600001128,554,Holsworthy - Wattle Grove,21504,73.7001,150.12112402300005,-35.25856216899994,3933,159534.9576036175
151.06428209337335,-34.031901749906616,572,Sutherland - Kirrawee,21499,7.7547,152.52112402300006,-34.658562168999936,4213,150996.56936907064
144.90728895853147,-38.368976789152995,989,Rosebud - McCrae,21499,23.7957,144.42112402300006,-38.85856216899994,2282,68895.15160008692
151.12955877340403,-33.86137693106018,402,Five Dock - Abbotsford,21497,4.6202,152.67112402300006,-34.35856216899994,4349,152552.71000347604
152.12566178853345,-32.736499877366484,120,Nelson Bay Peninsula,21447,47.4762,152.07112402300007,-32.558562168999934,5163,20384.794586165255
142.49569030235156,-38.34465571813254,1038,Warrnambool - North,21440,62.4201,142.62112402300005,-38.25856216899994,2548,14550.396783378572
145.11348716492282,-37.70032843985982,776,Greensborough,21392,10.0974,145.77112402300006,-36.75856216899994,3238,119706.17675395613
144.99794852411233,-37.852889202913666,713,Prahran - Windsor,21391,2.9054,143.97112402300007,-38.558562168999934,2416,119264.20779357747
144.69664589771565,-37.68728061660501,954,Hillside,21362,66.5481,143.52112402300006,-37.658562168999936,2823,103758.09314379592
145.08391379172875,-37.79194700597313,725,Balwyn North,21340,8.8491,146.22112402300007,-37.058562168999934,3104,129449.38853324679
151.2536804458725,-33.79779600808638,437,Balgowlah - Clontarf - Seaforth,21325,7.6104,152.82112402300007,-34.058562168999934,4486,147790.84373711544
150.78811970655252,-33.73197759666861,326,Lethbridge Park - Tregear,21322,11.2672,149.37112402300008,-33.158562168999936,4882,146301.33646265935
151.16180721711984,-33.894730977003064,337,Petersham - Stanmore,21314,3.0033,152.82112402300007,-33.45856216899993,4758,161302.0114226017
144.80239137958617,-37.737197738425316,934,St Albans - North,21270,6.5225,143.82112402300007,-37.058562168999934,3096,114987.49150420185
145.0425508199257,-37.856615539519844,773,Malvern - Glen Iris,21265,6.1552,144.12112402300005,-38.85856216899994,2281,137314.0241522641
150.83757940716833,-33.74349207082458,325,Hassall Grove - Plumpton,21243,6.2053,149.22112402300007,-33.45856216899993,4746,153325.72942713104
150.99400593371476,-33.790238132011375,514,Northmead,21222,5.9332,149.97112402300007,-32.558562168999934,5156,166613.4638493837
145.0160503870748,-37.74282263305947,787,Preston - East,21188,7.7457,144.27112402300006,-36.75856216899994,3233,127669.026981865
115.78255419621861,-31.865458876626178,1836,Karrinyup - Gwelup - Carine,21186,14.0888,115.32112402300007,-31.658562168999936,5449,49369.058517460806
151.14148886183494,-33.95093116213941,397,Rockdale - Banksia,21180,3.576,152.37112402300008,-34.95856216899993,4076,158933.8551816043
151.06861678797208,-33.744368203532204,521,Pennant Hills - Cheltenham,21178,13.2937,151.02112402300006,-32.25856216899994,5296,164835.15870733772
145.24885663396154,-37.821590567003355,860,Ringwood East,21142,9.3929,146.67112402300006,-37.95856216899993,2697,126031.24016502137
153.30042928881835,-27.990154817365553,1289,Nerang - Mount Nathan,21041,61.4986,153.57112402300007,-27.758562168999937,7344,37002.97669513868
115.85173315495365,-31.856169761556416,1832,Balga - Mirrabooka,20996,9.4486,115.17112402300006,-31.958562168999936,5312,65372.86854831656
150.8540598695166,-34.55474999227045,144,Warilla,20992,9.4949,150.87112402300008,-35.558562168999934,3799,111371.18136562101
144.45454965820028,-37.63795037660048,953,Bacchus Marsh,20992,196.2984,143.37112402300008,-37.35856216899994,2958,100700.21152778577
150.80646925127027,-34.024446426214105,457,Claymore - Eagle Vale - Raby,20989,22.9168,149.22112402300007,-34.658562168999936,4202,161947.59906700006
145.12466617765497,-37.82920087124184,741,Box Hill,20973,7.012,146.37112402300008,-38.558562168999934,2424,135929.65806671488
144.7375047551829,-37.739056410414676,962,Caroline Springs,20971,6.9526,143.52112402300006,-38.25856216899994,2551,121408.45337127986
115.90909599238802,-32.009704365252055,1874,Bentley - Wilson - St James,20959,11.1482,115.32112402300007,-32.25856216899994,5177,61963.490660580675
152.93543524797582,-27.102469410554754,1408,Caboolture - South,20938,13.9768,152.67112402300006,-27.158562168999936,7613,26931.515253917776
151.04637134214715,-33.86296506578355,498,Lidcombe,20936,6.4037,151.92112402300006,-35.25856216899994,3939,174386.96598883483
145.18676423792388,-37.9076258267111,927,Wheelers Hill,20917,10.4394,145.17112402300006,-39.158562168999936,2148,138864.91375069763
145.29892463358232,-38.07748271561134,900,Cranbourne North,20916,10.2394,146.22112402300007,-38.85856216899994,2288,118298.7311248795
150.96458951362376,-33.74241740165648,295,Baulkham Hills (West) - Bella Vista,20888,10.9631,150.72112402300007,-32.25856216899994,5295,166124.41186634224
152.46675486506467,-31.909300471223904,171,Taree,20881,125.1186,152.37112402300008,-31.958562168999936,5436,10564.809695182632
145.08929333757158,-37.995901820821636,772,Mordialloc - Parkdale,20873,7.9681,144.87112402300008,-39.158562168999936,2147,130452.9409849583
145.27564877372117,-38.106743185578374,898,Cranbourne,20859,13.027,145.47112402300007,-39.158562168999936,2149,117991.6004065286
153.07601428119807,-26.797682461378887,1462,Caloundra - West,20842,71.6378,152.82112402300007,-26.858562168999935,7750,26220.599662971013
138.61890809733023,-34.95379646035556,1595,Unley - Parkside,20830,7.0726,138.72112402300007,-35.25856216899994,3895,35071.057271104466
151.18443997766755,-33.87929290156114,341,Glebe - Forest Lodge,20814,2.3018,152.97112402300007,-33.75856216899994,4622,165956.5173099284
115.99207435081897,-32.08501354635385,1884,Gosnells,20800,15.5131,116.07112402300007,-32.558562168999934,5043,53035.550626139426
150.95493287527705,-31.15550814578916,204,Tamworth - East,20788,102.1806,151.02112402300006,-31.058562168999934,5840,12465.738442439644
138.6407843140075,-34.87096085394093,1609,Windsor Gardens,20768,8.4298,138.42112402300006,-34.658562168999936,4166,30977.119819313044
144.66204901935586,-37.8852362090782,973,Werribee - East,20744,7.7569,143.37112402300008,-37.95856216899993,2686,113800.06960092105
150.85020261942256,-33.99027720105416,459,Ingleburn - Denham Court,20675,30.9189,149.07112402300007,-33.75856216899994,4609,166598.97290199055
144.96794348410972,-37.8005037745348,694,Carlton,20575,1.8185,143.67112402300006,-38.558562168999934,2415,141388.30927945863
150.59653366918997,-34.90620454295775,282,Nowra,20547,101.6798,150.57112402300007,-35.558562168999934,3798,72409.93899216875
145.17572750258782,-37.92561840728223,925,Mulgrave,20526,10.7189,146.67112402300006,-37.35856216899994,2969,146219.64485271438
138.51940147637276,-34.98345685160749,1629,Glenelg (SA),20477,7.2232,138.12112402300005,-35.25856216899994,3893,47429.464838261614
144.9678340083823,-37.82661844772186,703,Southbank,20470,3.0743,143.97112402300007,-36.75856216899994,3232,147852.8236050564
152.95042937936694,-26.633101049464354,1486,Nambour,20430,54.0249,152.97112402300007,-26.558562168999938,7886,8511.600966267817
150.84479750753957,-34.02805777884236,462,Minto - St Andrews,20388,12.4133,149.82112402300007,-35.25856216899994,3932,165650.89125191484
150.7846743415292,-33.79734345985614,489,St Clair,20377,7.2035,149.52112402300006,-32.85856216899994,5019,157099.78385254266
144.6853375341998,-37.87325822555402,964,Hoppers Crossing - South,20366,7.0114,143.22112402300007,-37.658562168999936,2822,131198.67822630506
151.0834713320683,-33.8094467820099,527,West Ryde - Meadowbank,20337,4.7923,152.52112402300006,-32.85856216899994,5029,170399.26357480383
152.37935414150166,-27.64354198159422,1322,Lockyer Valley - East,20326,741.5888,152.37112402300008,-27.758562168999937,7340,12771.022716032568
149.125908264071,-33.249405303987,77,Orange - North,20298,99.5118,149.07112402300007,-33.158562168999936,4881,11295.7779272987
151.22193015281286,-33.825838364559026,432,Cremorne - Cammeray,20281,3.2391,152.97112402300007,-34.35856216899994,4350,171901.237791158
151.65617850194823,-32.9032891036276,235,Wallsend - Elermore Vale,20280,21.5199,151.62112402300005,-32.25856216899994,5298,71570.8285043135
150.9035666781311,-34.3405788580577,150,Woonona - Bulli - Russell Vale,20271,15.7847,151.17112402300006,-35.558562168999934,3800,137309.94132613638
144.74895416879977,-37.71454465452392,959,Taylors Hill,20267,5.9679,143.52112402300006,-37.058562168999934,3095,130858.2451061501
145.1560690957176,-37.881678583708066,922,Glen Waverley - West,20245,7.6758,146.07112402300007,-36.75856216899994,3239,148709.01456361584
153.23018557195687,-27.76799731293144,1296,Ormeau - Yatala,20245,72.1503,152.82112402300007,-28.058562168999934,7206,51558.99639234313
115.75892060143858,-32.42115678749871,1938,Singleton - Golden Bay - Secret Harbour,20209,14.5708,115.77112402300007,-32.558562168999934,5042,15280.053080331858
150.74004719748882,-33.765920402342694,481,Kingswood - Werrington,20157,14.0229,149.67112402300006,-32.558562168999934,5155,166946.17720245023
144.78446122089815,-37.88090211988565,942,Altona Meadows,20141,10.5398,143.82112402300007,-38.85856216899994,2280,137346.00379919616
115.93129226205447,-32.14693903018213,1863,Forrestdale - Harrisdale - Piara Waters,20111,44.2024,116.52112402300006,-32.25856216899994,5181,56974.51438439211
151.264891137861,-33.89991781497719,349,Bondi - Tamarama - Bronte,20097,2.4963,152.82112402300007,-34.658562168999936,4214,166182.54042885057
138.6719065510935,-34.87756683065006,1586,Paradise - Newton,20041,9.2257,139.02112402300006,-34.658562168999936,4168,40153.72428880698
144.70134995492427,-37.86232334310599,963,Hoppers Crossing - North,20034,10.9136,143.22112402300007,-38.25856216899994,2550,137150.81504332475
152.8501720539391,-27.651097908930968,1344,Redbank Plains,20011,19.3743,152.67112402300006,-27.758562168999937,7341,21299.448242908587
151.0882344340997,-33.91349669187395,377,Belmore - Belfield,19984,4.5135,152.22112402300007,-35.25856216899994,3940,181837.79127065078
144.24251546861527,-36.8063061475279,599,Kangaroo Flat - Golden Square,19956,40.9147,144.12112402300005,-36.45856216899993,3369,40086.47315603477
153.03706740234057,-30.37611290682302,88,Sawtell - Boambee,19947,118.2251,153.12112402300005,-30.458562168999936,6119,12196.920379015302
145.1580378157251,-38.13358958197324,977,Frankston North,19947,13.2383,144.57112402300007,-39.158562168999936,2146,124723.73027246456
138.7617243040785,-34.61049948816594,1597,Gawler - South,19915,76.7139,138.87112402300008,-34.35856216899994,4303,29698.54475083476
151.13962702655306,-33.71045881995216,430,Turramurra,19860,20.6426,151.32112402300007,-32.25856216899994,5297,161905.58408647528
153.449880602179,-28.216690542550335,256,Tweed Heads,19837,100.2868,153.57112402300007,-28.35856216899994,7072,19714.26821422649
150.92971248573159,-33.868095877712065,546,Fairfield - West,19791,4.6915,149.07112402300007,-34.35856216899994,4337,179902.13237671868
144.30183594114328,-38.126544602927694,617,Geelong West - Hamlyn Heights,19788,32.0374,143.37112402300008,-38.558562168999934,2414,94446.80593002496
146.04854630046714,-34.28118764685347,260,Griffith (NSW),19748,56.333,146.07112402300007,-34.35856216899994,4327,8830.660102307938
145.1726764192396,-37.97372992965413,918,Noble Park - West,19712,4.7945,145.77112402300006,-39.158562168999936,2150,141485.1225042849
115.96088717688123,-32.10040954047671,1885,Huntingdale - Southern River,19710,18.009,116.37112402300006,-32.558562168999934,5044,63819.91981646115
153.07780607743535,-26.65441827044916,1469,Maroochydore - Kuluin,19692,13.8495,153.27112402300006,-26.558562168999938,7887,21989.194038555717
144.81816809680737,-37.802006307958436,938,Sunshine West,19657,12.9688,144.72112402300007,-36.45856216899993,3371,149339.88177890168
150.87214909552932,-33.866054602553994,540,Bossley Park - Abbotsbury,19650,9.5146,148.92112402300006,-34.058562168999934,4473,181587.68667298876
144.593684844845,-37.6215267133448,955,Melton,19614,130.7052,143.67112402300006,-36.75856216899994,3231,126023.13467585955
151.06183252789012,-33.83825520823695,492,Homebush Bay - Silverwater,19594,11.2619,150.42112402300006,-32.25856216899994,5294,185127.19068419895
115.80556384842576,-31.985150479324204,1782,Nedlands - Dalkeith - Crawley,19588,9.7499,115.47112402300007,-32.558562168999934,5041,70962.8187914595
115.90072630335703,-31.825860128457727,1803,Ballajura,19540,23.8166,116.52112402300006,-31.658562168999936,5453,61645.58998771438
115.96805925125147,-32.028651084180154,1882,Beckenham - Kenwick - Langford,19538,18.9584,116.67112402300006,-31.958562168999936,5317,66894.44135223534
145.00605780626313,-37.75820546261221,689,Thornbury,19522,4.9972,145.02112402300006,-36.45856216899993,3372,144235.52840475983
152.9207616556695,-27.298097324491874,1425,Cashmere,19502,45.2329,152.52112402300006,-27.458562168999936,7477,43347.730601490024
150.82207036741949,-34.126817555892174,455,Bradbury - Wedderburn,19484,36.6555,149.37112402300008,-34.95856216899993,4066,162023.21752854652
115.99081998008491,-32.163438423066,1860,Armadale - Wungong - Brookdale,19478,25.3933,115.92112402300006,-32.85856216899994,4907,77360.55400098412
151.0461486911063,-33.72199900085038,303,Cherrybrook,19474,8.2514,152.37112402300008,-32.558562168999934,5164,178693.54484804932
115.69792084312249,-31.66765356505613,1852,Mindarie - Quinns Rocks - Jindalee,19462,12.6805,115.47112402300007,-31.35856216899994,5585,40479.18665396309
149.11245008345037,-33.3012406750706,76,Orange,19457,45.2499,148.92112402300006,-33.45856216899993,4745,24927.903598394405
145.38869251736364,-37.71372466251338,874,Lilydale - Coldstream,19420,109.3818,146.52112402300006,-37.058562168999934,3105,123874.14968791307
116.00435470028822,-31.989798830023467,1888,Forrestfield - Wattle Grove,19408,26.8976,116.37112402300006,-31.35856216899994,5588,78154.30030727333
144.86297672214997,-37.7845356416045,947,Braybrook,19384,7.4842,144.42112402300006,-36.45856216899993,3370,152300.5688538167
150.62074377117702,-33.742282948044924,469,Blaxland - Warrimoo - Lapstone,19373,29.6935,149.22112402300007,-32.85856216899994,5018,163089.09310560944
145.4775956330502,-38.045357975594634,887,Pakenham - North,19341,37.2213,146.67112402300006,-38.558562168999934,2425,118931.51910816664
150.95311859553266,-33.92735435924751,553,Chipping Norton - Moorebank,19319,14.4902,151.47112402300007,-35.558562168999934,3801,187065.9445456962
145.03076656004126,-38.275388106452425,987,Mount Martha,19317,30.2094,144.27112402300006,-39.158562168999936,2145,118221.74929767143
145.10147405690697,-37.87226747646909,919,Ashwood - Chadstone,19310,6.7087,146.82112402300007,-37.658562168999936,2834,153369.5287444486
151.34766029020386,-33.425146333942664,31,Gosford - Springfield,19284,16.9124,151.92112402300006,-32.25856216899994,5299,140067.8776835323
151.14833215731682,-33.85553358967571,401,Drummoyne - Rodd Point,19276,3.7047,153.12112402300005,-34.058562168999934,4487,183736.16202891865
145.127120221787,-37.88724450064704,924,Mount Waverley - South,19256,8.7006,146.82112402300007,-38.25856216899994,2562,154251.92304578595
138.68493636357385,-34.80966110431747,1625,Modbury Heights,19253,9.9089,139.17112402300006,-34.95856216899993,4032,47417.3195392586
152.92369313527564,-27.185541310630065,1417,Narangba,19204,37.7088,152.52112402300006,-26.858562168999935,7749,53930.67523113185
138.67200495946724,-34.92589878747651,1582,Burnside - Wattle Park,19201,11.305,139.02112402300006,-35.25856216899994,3896,48738.99027431202
151.08190955504926,-33.7189855166351,422,Normanhurst - Thornleigh - Westleigh,19141,9.9882,150.12112402300005,-32.25856216899994,5293,185188.0127080388
153.05213649031296,-27.59589654137586,1121,Sunnybank Hills,19133,6.4409,153.57112402300007,-27.158562168999936,7616,70597.47215780489
151.19980095842402,-33.83156187672159,433,Crows Nest - Waverton,19125,2.9612,152.97112402300007,-33.158562168999936,4894,180739.29534941565
145.05612503859217,-37.89347071201126,753,Carnegie,19104,3.8043,146.07112402300007,-39.158562168999936,2151,165993.65487312162
145.08814374944046,-37.731322259096736,782,Viewbank - Yallambie,19090,10.2379,145.62112402300005,-36.45856216899993,3374,148980.9450601509
152.93546405374684,-29.67727392812595,79,Grafton,19075,106.2537,152.97112402300007,-29.558562168999934,6526,13603.803970263363
144.280671386472,-38.320233966384954,630,Torquay,19066,126.3198,143.52112402300006,-38.85856216899994,2279,89164.41231960512
150.99825457169484,-33.88203722744077,503,Chester Hill - Sefton,19060,7.2676,152.67112402300006,-34.95856216899993,4077,194700.2861433799
151.21741908782127,-33.83957266474899,435,Neutral Bay - Kirribilli,19052,2.2106,153.12112402300005,-33.45856216899993,4759,181581.83586096813
115.69713918755905,-32.54733473298863,1771,Halls Head - Erskine,19045,14.2469,115.62112402300006,-32.85856216899994,4906,35241.676736669404
145.12956099046863,-38.17648265660247,978,Frankston South,19035,14.5602,145.02112402300006,-39.45856216899993,2012,142633.50053340776
138.5641928702489,-34.8563131155471,1674,The Parks,19028,18.2633,138.12112402300005,-34.658562168999936,4165,46118.66728616969
153.39793049649478,-27.946106929901404,1279,Labrador,19021,4.9957,152.97112402300007,-28.35856216899994,7070,62021.4020944575
145.40123129809666,-36.34273498560749,1022,Shepparton - North,19014,65.6581,145.47112402300007,-36.158562168999936,3509,21379.53514722656
139.51031970737006,-20.725922442903684,1447,Mount Isa,18999,62.8098,139.62112402300005,-20.858562168999935,10426,18673.858359344697
145.93966677117226,-38.214044934702635,656,Warragul,18985,352.1791,146.52112402300006,-38.85856216899994,2289,87685.56118993003
150.81808151664504,-33.7406621730001,323,Bidwill - Hebersham - Emerton,18970,6.095,149.37112402300008,-32.558562168999934,5154,188174.0904436723
153.32301303324212,-27.94720855560477,1290,Pacific Pines - Gaven,18909,16.4182,152.67112402300006,-28.35856216899994,7069,78600.39743430821
151.12115379813199,-33.659766353666235,420,Asquith - Mount Colah,18895,34.6849,152.82112402300007,-32.85856216899994,5030,181622.8211278182
146.3094731792501,-36.358843303393314,643,Wangaratta,18891,57.5835,146.22112402300007,-36.45856216899993,3376,13610.274895348219
153.35073251725925,-28.121089690797923,1285,Mudgeeraba - Bonogin,18872,66.6425,153.42112402300006,-28.658562168999936,6936,59960.72005838789
152.62172533361667,-26.244912738013035,1557,Gympie Region,18866,2544.6625,152.52112402300006,-26.258562168999937,8021,10163.81096280269
151.10346493324212,-34.035542603782424,560,Miranda - Yowie Bay,18857,5.9968,151.77112402300006,-35.558562168999934,3802,179660.23419753092
150.8808227079512,-30.88317276699772,207,Tamworth Region,18839,8980.4841,150.87112402300008,-30.758562168999937,5975,13845.583077248804
115.94578993238322,-32.01040740046997,1877,Cannington - Queens Park,18826,9.5147,116.82112402300007,-32.25856216899994,5182,87057.45121832237
115.82174049781459,-31.93287600662998,1790,Wembley - West Leederville - Glendalough,18801,6.5603,115.02112402300006,-31.658562168999936,5448,81695.15166098835
145.09283384836357,-38.19500886850276,986,Mount Eliza,18798,23.2077,145.32112402300007,-39.45856216899993,2013,141659.82699131206
145.06741612983046,-37.65942496467512,799,Mill Park - North,18775,8.1362,146.37112402300008,-36.75856216899994,3240,152931.13257773579
145.26863522562363,-37.77298991997645,858,Croydon Hills - Warranwood,18763,9.492,146.97112402300007,-37.95856216899993,2698,151218.6378371115
115.88787285977139,-32.052526704123565,1881,Willetton,18763,8.743,115.02112402300006,-32.25856216899994,5176,84897.38212997426
115.95153754128641,-31.837024161464697,1804,Beechboro,18733,47.1105,116.82112402300007,-31.658562168999936,5454,84739.13879323029
145.01430567214533,-37.93768041571698,750,Hampton,18732,5.6846,143.97112402300007,-39.158562168999936,2144,163205.01406888795
145.16402930359533,-38.24111168082117,990,Somerville,18691,117.354,144.72112402300007,-39.45856216899993,2011,140511.10221619252
145.56176687208963,-37.953240924429664,885,Emerald - Cockatoo,18686,371.6241,146.97112402300007,-38.558562168999934,2426,140469.15233867214
151.12061803558262,-33.7163976531221,431,Wahroonga (East) - Warrawee,18651,13.327,152.22112402300007,-32.25856216899994,5300,191618.81187801957
152.96291810641816,-27.591719332074927,1316,Inala - Richlands,18637,10.8744,152.52112402300006,-28.058562168999934,7205,67606.73602308243
115.8430748901881,-31.87531872643055,1837,Nollamara - Westminster,18618,6.039,115.17112402300006,-31.35856216899994,5584,85720.13948566034
145.22111065508048,-37.87360844299087,850,Wantirna South,18610,13.3559,146.97112402300007,-37.35856216899994,2970,164743.16818613102
150.92555913350276,-33.85343878630118,549,Smithfield - Wetherill Park,18608,6.6123,150.27112402300006,-35.558562168999934,3797,198424.42582832742
150.80822166794513,-34.064717356213265,456,Campbelltown - Woodbine,18604,13.7476,149.52112402300006,-35.25856216899994,3931,177361.32797417024
151.05226643650167,-33.9709028162685,388,Peakhurst - Lugarno,18571,7.4308,152.52112402300006,-35.25856216899994,3941,196341.92854503487
150.7374231180626,-23.1547617455406,1252,Yeppoon,18561,78.5555,150.72112402300007,-23.258562168999937,9375,11615.271632469476
144.37797158048866,-37.94778185704675,620,Lara,18552,588.6014,143.07112402300007,-37.95856216899993,2685,114866.27400228893
144.78623013784699,-37.688635563805384,940,Taylors Lakes,18531,18.4632,143.22112402300007,-37.058562168999934,3094,155267.2630147475
152.67217229229357,-25.50560702476106,1567,Maryborough (Qld),18522,84.2739,152.67112402300006,-25.358562168999935,8429,16288.865536198778
150.72885167282297,-33.98314232762036,532,Cobbitty - Leppington,18505,132.1375,148.92112402300006,-34.658562168999936,4201,182467.62031341053
150.88902058183663,-33.748382504993394,312,Blacktown (North) - Marayong,18503,7.3829,149.82112402300007,-32.25856216899994,5292,193018.4159687106
144.88268224612983,-37.83757763169387,944,Newport,18484,8.8407,143.07112402300007,-37.35856216899994,2957,168582.65169537347
153.1357271103116,-26.988873682768524,1405,Bribie Island,18465,145.3505,153.42112402300006,-26.858562168999935,7752,31811.999127994386
145.02536800749183,-37.89137537326332,755,Caulfield - South,18456,4.7426,145.92112402300006,-36.45856216899993,3375,177797.07085984078
151.03964398340443,-33.794370827123316,502,Oatlands - Dundas Valley,18448,6.0763,151.17112402300006,-31.958562168999936,5432,203957.89436660643
138.70989445616834,-34.68603261381289,1599,Craigmore - Blakeview,18443,11.8807,138.57112402300007,-34.35856216899994,4302,38495.32419707985
144.8909516255085,-37.67627371837993,832,Gladstone Park - Westmeadows,18416,13.9361,143.82112402300007,-36.45856216899993,3368,165268.14144124993
152.78391944372487,-27.611987232764747,1329,Ipswich - East,18416,11.4813,152.22112402300007,-27.458562168999936,7476,58136.024154726525
142.15592649630645,-34.18080408088549,1004,Mildura - North,18402,25.1167,142.02112402300006,-34.058562168999934,4450,18398.868638975033
115.77267248508089,-32.481624728300545,1774,Mandurah - North,18386,31.8412,115.17112402300006,-32.558562168999934,5040,57161.09428932406
150.9516593357524,-33.871317308896806,545,Fairfield,18363,4.2304,148.77112402300006,-33.75856216899994,4608,202274.1907060175
145.12263604510312,-37.804693898317794,742,Box Hill North,18359,6.2087,146.82112402300007,-37.058562168999934,3106,171625.46020140758
144.80754702283372,-37.75337195143191,935,St Albans - South,18352,6.2647,142.92112402300006,-37.658562168999936,2821,166684.47672307258
151.67840774661968,-33.01878246693187,208,Belmont - Bennetts Green,18274,22.2119,152.67112402300006,-32.558562168999934,5165,106079.4381555012
144.54265330354815,-37.66487745728026,957,Melton West,18266,24.2021,143.37112402300008,-36.75856216899994,3230,144673.8488554242
150.8665094197252,-33.94840594479042,557,Prestons - Edmondson Park,18255,14.1323,149.97112402300007,-35.558562168999934,3796,196531.62398418185
153.20292975836884,-27.542989249264448,1045,Capalaba,18198,18.889,152.37112402300008,-27.158562168999936,7612,92674.16077092323
115.8821317809443,-32.14411516915586,1898,Banjup,18177,29.7061,116.22112402300006,-32.85856216899994,4908,85390.74291304167
153.0314260313071,-27.27038143544229,1431,Murrumba Downs - Griffin,18136,22.5196,152.67112402300006,-26.558562168999938,7885,86607.17798872862
139.25788063250818,-35.12646042617753,1738,Murray Bridge,18120,97.5456,139.32112402300007,-35.25856216899994,3897,15746.659872402144
138.5663897180194,-34.897814668736,1665,Hindmarsh - Brompton,18102,7.8961,137.97112402300007,-34.95856216899993,4028,54805.891540976154
138.58940882733825,-34.95580595090467,1594,Goodwood - Millswood,18086,7.1977,138.57112402300007,-35.558562168999934,3758,66891.15066363943
151.02483035831688,-33.85241589326508,494,Auburn - Central,18070,3.7326,153.27112402300006,-33.75856216899994,4623,208258.4941102252
151.4610856595636,-32.80070827346894,110,Kurri Kurri - Abermain,18057,90.6145,151.47112402300007,-31.958562168999936,5433,93389.0668013236
151.07656132580783,-33.91903728867406,382,Lakemba,18056,2.1866,152.07112402300007,-35.558562168999934,3803,203403.75043385528
141.47931203058573,-31.944020724820007,96,Broken Hill,18027,170.1153,141.57112402300007,-31.958562168999936,5400,8828.948050109322
151.08494838703928,-34.04612443710696,559,Gymea - Grays Point,17986,5.7978,153.12112402300005,-34.658562168999936,4215,199270.16390185818
115.7126576720786,-33.2576622770308,1750,Australind - Leschenault,17956,67.3083,115.77112402300007,-33.158562168999936,4770,12268.144725559707
138.666441009672,-34.68741834081,1600,Davoren Park,17948,9.4648,138.27112402300006,-34.35856216899994,4301,51460.742528534276
138.53851606508985,-34.86877703219059,1669,Woodville - Cheltenham,17943,8.8122,137.82112402300007,-34.658562168999936,4164,69696.21780119577
151.25095492020003,-33.897105170484004,351,Bondi Junction - Waverly,17924,2.5234,153.27112402300006,-34.35856216899994,4351,193256.61105192092
145.23349414010016,-37.811265142935255,859,Ringwood,17916,9.9105,147.12112402300005,-37.658562168999936,2835,167254.49120277676
153.10439249326802,-30.282209146581362,83,Coffs Harbour - North,17902,25.6688,152.97112402300007,-30.158562168999936,6254,18774.571619664755
150.8456840094945,-33.692057581058585,320,Riverstone - Marsden Park,17893,79.421,150.87112402300008,-31.958562168999936,5431,192253.33059893054
151.24367535429948,-33.90815012829504,365,Randwick - North,17880,1.9356,152.97112402300007,-34.95856216899993,4078,196939.9838323441
138.6389617769809,-34.77106165358342,1616,Salisbury,17866,10.7696,139.32112402300007,-34.658562168999936,4169,63724.63641472893
151.1025658089562,-33.894573389233095,409,Croydon Park - Enfield,17862,3.9711,153.42112402300006,-34.058562168999934,4488,215031.66930077292
138.72558344727406,-35.034878998781615,1575,Aldgate - Stirling,17853,117.2141,138.87112402300008,-35.558562168999934,3759,59587.55072221852
151.2119628020634,-33.885431688467726,346,Surry Hills,17844,1.3164,153.27112402300006,-33.158562168999936,4895,207587.59106918506
153.40516579949124,-27.983807498130233,1308,Southport - South,17833,6.6527,153.12112402300005,-28.658562168999936,6935,79795.43339971956
150.90761892991156,-33.8993184496869,542,Cabramatta West - Mount Pritchard,17810,5.3429,148.77112402300006,-34.35856216899994,4336,203559.55985158985
138.6764992045148,-34.77165703814739,1617,Salisbury East,17771,14.8505,139.17112402300006,-34.35856216899994,4304,64500.31162438367
150.88755117414703,-33.91493676678736,530,Ashcroft - Busby - Miller,17751,5.463,149.07112402300007,-34.95856216899993,4065,203155.2248025956
144.79701397214416,-38.37880296136013,988,Point Nepean,17726,67.1875,144.42112402300006,-39.45856216899993,2010,124218.84878114589
150.68917759295076,-33.7710109468754,480,Jamisontown - South Penrith,17684,9.0181,148.77112402300006,-33.158562168999936,4880,190804.20483768434
138.62537945558273,-34.72650493272729,1618,Salisbury North,17656,31.3003,137.97112402300007,-34.35856216899994,4300,72614.3166810742
138.86358352295292,-35.06917168418655,1578,Mount Barker,17654,54.1038,139.47112402300007,-34.95856216899993,4033,56795.15030749498
145.29207962579312,-38.05015695517413,907,Narre Warren South (West),17648,6.777,146.37112402300008,-39.158562168999936,2152,154831.235379715
151.14096925338296,-33.901967706395276,410,Dulwich Hill - Lewisham,17636,2.7016,152.82112402300007,-35.25856216899994,3942,215426.71370527984
144.99813465792317,-37.86703802874362,711,St Kilda East,17625,2.4135,143.67112402300006,-39.158562168999936,2143,184248.4632715237
153.06478555256854,-27.216249610506733,1422,Rothwell - Kippa-Ring,17622,15.3908,153.57112402300007,-26.558562168999938,7888,88547.60691251243
145.14859108710112,-37.75399615491912,735,Templestowe,17620,16.1176,146.67112402300006,-36.75856216899994,3241,174490.45019727736
151.25130194610517,-33.7737070750503,449,Manly Vale - Allambie Heights,17601,9.3541,153.12112402300005,-32.85856216899994,5031,201536.4813970334
150.91146950966137,-33.75685265531115,311,Blacktown (East) - Kings Park,17600,7.9753,150.57112402300007,-31.958562168999936,5430,201953.38710489837
152.86044528618822,-31.438015860478206,166,Port Macquarie - West,17577,54.1669,152.67112402300006,-31.35856216899994,5709,20045.343454270016
150.87819634726088,-34.428744992560006,152,Wollongong - West,17574,5.6592,151.02112402300006,-35.85856216899994,3664,159156.3295809144
144.89730278625254,-37.79822224801603,948,Footscray,17536,4.967,142.92112402300006,-38.25856216899994,2549,180874.6150113022
153.03420307397445,-27.32013431673812,1082,Bracken Ridge,17516,8.1103,152.22112402300007,-26.858562168999935,7748,95489.58356547159
150.8320122176817,-34.602022795252836,142,Shellharbour - Flinders,17487,49.5814,150.72112402300007,-35.85856216899994,3663,139766.2591748772
153.33756344751163,-27.900851249517203,1293,Helensvale,17476,20.1329,152.82112402300007,-28.658562168999936,6934,98070.10934551741
151.1731780666782,-27.033231760267366,1224,Wambo,17454,5700.3325,151.17112402300006,-27.158562168999936,7608,13887.924538327965
149.3910801923301,-35.44412532194385,4,Queanbeyan Region,17435,3054.4099,149.37112402300008,-35.558562168999934,3794,12824.734537835318
153.55537295107302,-28.846990747457344,238,Ballina,17435,36.1299,153.57112402300007,-28.958562168999936,6800,12460.322933676523
151.01336674119773,-34.05490563592073,573,Engadine,17434,8.9538,151.32112402300007,-35.85856216899994,3665,202054.18274408753
115.86962355331336,-31.981045612117107,1897,South Perth - Kensington,17410,7.7565,114.87112402300006,-31.958562168999936,5311,94417.95427059098
145.01713426064097,-37.960892367107036,751,Sandringham - Black Rock,17396,6.4301,145.62112402300005,-39.45856216899993,2014,174353.7181230371
148.62856726808297,-32.26714857779474,100,Dubbo - South,17380,25.4336,148.62112402300005,-32.25856216899994,5288,1182.543445174685
144.9350057531594,-37.837880761929306,707,Port Melbourne,17370,2.7894,143.07112402300007,-38.558562168999934,2413,181811.53823816203
115.90959098398876,-31.98516637294964,1869,East Victoria Park - Carlisle,17352,6.2709,116.67112402300006,-32.558562168999934,5045,95866.79194793443
151.19162349876677,-33.908592083583464,340,Erskineville - Alexandria,17340,4.32,152.37112402300008,-35.558562168999934,3804,212529.51114711977
115.78910421003917,-31.894412063153727,1835,Innaloo - Doubleview,17310,5.6082,115.92112402300006,-31.058562168999934,5723,93518.01717075414
115.81352789664196,-31.95232614976542,1789,Subiaco - Shenton Park,17305,7.7961,115.62112402300006,-31.058562168999934,5722,100765.8238383533
144.83534137593912,-37.62368122066872,833,Greenvale - Bulla,17297,95.9064,144.87112402300008,-36.158562168999936,3507,162618.38629111813
138.61081470748283,-34.78258725943926,1614,Parafield Gardens,17285,7.0272,138.72112402300007,-34.058562168999934,4439,80950.57136444679
145.08172270799113,-37.59206719669466,808,Mernda,17268,23.8231,145.17112402300006,-36.158562168999936,3508,159277.95453538437
115.87676306393118,-31.9248196487776,1786,Mount Lawley - Inglewood,17244,7.0812,116.67112402300006,-31.35856216899994,5589,98081.67161597144
145.0841891627146,-37.82453514622452,732,Surrey Hills (West) - Canterbury,17219,5.7026,147.12112402300005,-38.25856216899994,2563,185185.8943837407
152.94116857829388,-27.445846424417805,1144,The Gap,17204,12.2584,152.07112402300007,-27.158562168999936,7611,91820.4389849229
145.07196069459897,-37.85471795224252,727,Glen Iris - East,17190,5.7049,146.82112402300007,-38.85856216899994,2290,189181.1895865873
115.78392935564214,-31.684030968545876,1847,Carramar,17180,30.0077,116.22112402300006,-31.058562168999934,5724,80862.77599607018
150.54396167216225,-34.19346073343195,466,Picton - Tahmoor - Buxton,17149,189.9084,149.22112402300007,-35.25856216899994,3930,169233.02082583777
145.13835415508038,-38.10479839089889,980,Seaford (Vic.),17138,12.4321,145.92112402300006,-39.45856216899993,2015,164953.59887041713
153.47192620354028,-28.860078827997796,239,Ballina Region,17130,406.5487,153.27112402300006,-28.958562168999936,6799,22419.820540209854
138.60395996359335,-34.757928616313606,1615,Paralowie,17130,8.3213,138.42112402300006,-34.058562168999934,4438,79377.91137461795
151.07490605453395,-33.86284868038538,412,Homebush,17086,3.8434,151.77112402300006,-31.958562168999936,5434,220995.25489972628
153.04331133214086,-26.676184161276105,1455,Buderim - North,17077,24.1124,153.12112402300005,-26.258562168999937,8023,46913.91032610491
151.03127360728814,-33.91340686042748,375,Bankstown - North,17057,2.7406,149.67112402300006,-35.558562168999934,3795,220953.07883249634
151.13661747799142,-33.751468619357915,428,Pymble,17056,10.2514,152.52112402300006,-32.25856216899994,5301,210116.2091727195
144.91853478731875,-37.604381677339894,840,Craigieburn - South,17051,11.9148,144.57112402300007,-36.158562168999936,3506,163406.88544479557
151.0322344705653,-33.957842606066265,371,Padstow,17012,6.5091,151.62112402300005,-35.85856216899994,3666,217614.56357964672
144.9516577473785,-37.66373395805828,831,Campbellfield - Coolaroo,17011,18.1867,144.27112402300006,-36.158562168999936,3505,177700.40638964062
151.7045723984899,-32.92408620708945,227,Lambton - New Lambton,17006,10.5485,152.07112402300007,-31.958562168999936,5435,112478.53370602748
147.4009978475058,-35.14989321788297,271,Wagga Wagga - East,16994,54.0429,147.27112402300006,-34.95856216899993,4059,24308.851534538237
152.6932412641608,-31.61860353652975,164,Laurieton - Bonny Hills,16934,524.9065,152.82112402300007,-31.658562168999936,5574,12915.275402198107
150.86079435712173,-34.05405562835863,460,Leumeah - Minto Heights,16934,23.6461,150.42112402300006,-35.85856216899994,3662,204171.61749802736
138.56616268808904,-34.927794471686774,1680,Richmond (SA),16911,8.9253,138.27112402300006,-35.558562168999934,3757,74953.70244871463
115.80642469047811,-32.03366473112943,1928,Melville,16902,7.8838,115.32112402300007,-32.85856216899994,4905,102224.1035422967
153.05021463912462,-26.70591501343137,1456,Buderim - South,16890,30.1384,153.42112402300006,-26.258562168999937,8024,61839.06823099963
152.42850914262,-24.85044370845948,1536,Bargara - Burnett Heads,16883,144.5297,152.37112402300008,-24.758562168999937,8700,11714.935714146648
153.22919230081132,-27.53243268162396,1042,Alexandra Hills,16882,13.6312,152.22112402300007,-28.058562168999934,7204,115187.54746391269
145.19912159439676,-37.81825284028132,866,Mitcham (Vic.),16867,6.6271,147.27112402300006,-37.95856216899993,2699,182931.66835969946
151.13715432177085,-33.99217192409759,398,Sans Souci - Ramsgate,16852,4.6115,151.92112402300006,-35.85856216899994,3667,219087.25904793633
153.06136556681474,-27.49864808932557,1094,Coorparoo,16835,5.3318,152.07112402300007,-27.758562168999937,7339,101891.39490019805
151.01628409616134,-33.95168020137412,373,Revesby,16800,5.0925,148.62112402300005,-34.058562168999934,4472,221582.99375079863
145.20285529974012,-37.784829681273095,855,Donvale - Park Orchards,16779,20.8028,145.77112402300006,-36.158562168999936,3510,187431.46948306815
151.03188374512055,-33.927984150577764,376,Bankstown - South,16765,4.4232,153.42112402300006,-33.45856216899993,4760,227557.07933257354
145.1195648834953,-37.72860929755562,781,Montmorency - Briar Hill,16765,12.0278,146.52112402300006,-36.45856216899993,3377,188122.76669611037
151.12352353361686,-33.97648592756549,395,Kogarah Bay - Carlton - Allawah,16741,3.5033,153.42112402300006,-34.658562168999936,4216,224597.0399829498
146.29599468866041,-38.19662612074094,672,Moe - Newborough,16734,105.2835,147.27112402300006,-38.558562168999934,2427,94205.57644755093
138.68856118114564,-34.84272003152788,1624,Hope Valley - Modbury,16725,10.3124,139.62112402300005,-34.658562168999936,4170,87801.71280039269
150.89211965710376,-33.77782473273824,317,Blacktown (West),16719,4.6753,148.92112402300006,-32.85856216899994,5017,209946.71475710013
138.50630242330752,-34.894251976571745,1667,Seaton - Grange,16714,8.2533,137.82112402300007,-35.25856216899994,3892,74422.60354753931
145.0162758562402,-37.91713289963336,748,Brighton East,16701,5.6083,144.12112402300005,-39.45856216899993,2009,187998.14805993534
145.08048462561254,-37.809832471082785,724,Balwyn,16700,5.585,147.12112402300005,-37.058562168999934,3107,198919.74857634673
145.07150007914802,-37.38486124984738,802,Wallan,16700,507.7455,146.07112402300007,-36.158562168999936,3511,162734.19382290653
115.99687928406118,-32.2134040158651,1892,Byford,16690,29.3986,116.52112402300006,-32.85856216899994,4909,86854.48643641417
150.9348672651794,-33.73574164705439,318,Glenwood,16652,5.1186,150.27112402300006,-31.958562168999936,5429,206645.5216563552
151.1814346323779,-33.85683080844039,403,Balmain,16650,2.5815,152.97112402300007,-32.558562168999934,5166,220389.27786915936
145.6801885992679,-37.76801524226638,882,Yarra Valley,16640,729.7582,147.27112402300006,-37.35856216899994,2971,147726.35470483155
150.88118856615839,-33.89253702857258,539,Bonnyrigg Heights - Bonnyrigg,16636,5.1887,148.62112402300005,-33.45856216899993,4744,215043.89486932824
151.10737922197825,-34.01529424664673,561,Sylvania - Taren Point,16591,6.0725,152.67112402300006,-35.558562168999934,3805,223137.528486197
144.96391026024162,-37.84571434695266,705,Albert Park,16540,4.6747,143.22112402300007,-38.85856216899994,2278,189330.26517743393
150.7748814901064,-33.75967015748146,491,St Marys - North St Marys,16533,12.8646,149.52112402300006,-32.25856216899994,5291,203562.1445195424
153.05106900000558,-27.67968546317171,1361,Regents Park - Heritage Park,16527,9.385,152.37112402300008,-28.35856216899994,7068,100652.68170908964
151.17736042505328,-32.57517624553117,111,Singleton,16521,127.2317,151.32112402300007,-31.658562168999936,5569,102539.19130457552
144.985457383322,-37.881014587528725,706,Elwood,16509,2.553,142.77112402300006,-37.95856216899993,2684,194894.97572392778
151.22926203901775,-33.92552905792453,361,Kingsford,16471,2.0141,153.57112402300007,-33.75856216899994,4624,217544.35533480073
115.76554225468254,-31.896579196155944,1839,Scarborough,16462,4.9714,115.32112402300007,-31.058562168999934,5721,102060.34666047255
153.26623225185065,-29.420587705142793,81,Maclean - Yamba - Iluka,16440,711.0493,153.27112402300006,-29.558562168999934,6527,15300.178362521187
151.22500927049543,-33.88999882649581,355,Paddington - Moore Park,16411,3.725,153.27112402300006,-34.95856216899993,4079,222315.87635343612
142.21464057310783,-36.73168584313242,993,Horsham,16395,83.0691,142.17112402300006,-36.75856216899994,3226,4898.976313317585
153.11314914239836,-27.51046480259473,1092,Carindale,16394,10.1962,151.92112402300006,-27.458562168999936,7475,117946.30861516108
152.96880263135677,-27.3543882690628,1424,Albany Creek,16369,9.7817,152.37112402300008,-26.558562168999938,7884,106286.08287818139
145.80201796235465,-38.13533020431196,653,Drouin,16368,326.806,146.67112402300006,-39.158562168999936,2153,136476.62702652073
138.61970224699314,-34.97792453969814,1641,Mitcham (SA),16346,11.4472,139.17112402300006,-35.558562168999934,3760,81651.74948537542
116.82165658266325,-20.74890111935146,1977,Karratha,16334,134.2041,116.82112402300007,-20.858562168999935,10350,12140.323901948173
150.97683140264456,-33.81315871591095,519,Wentworthville - Westmead,16322,3.9358,149.07112402300007,-32.558562168999934,5153,225704.15692834556
138.7305202687806,-34.80297586188123,1626,Redwood Park,16322,14.1403,139.47112402300007,-34.35856216899994,4305,83952.04448777241
153.29171784567012,-27.92070722953883,1297,Oxenford - Maudsland,16313,26.8573,152.52112402300006,-28.658562168999936,6933,111357.44513386695
115.85496969566962,-31.905888874331584,1844,Yokine - Coolbinia - Menora,16295,6.8505,116.97112402300007,-31.958562168999936,5318,105710.89478322423
145.04995450583894,-37.83114108802282,729,Hawthorn East,16289,3.824,143.52112402300006,-36.45856216899993,3367,204082.76949205142
144.88472280476992,-37.85909770590651,946,Williamstown,16277,7.3463,142.77112402300006,-37.35856216899994,2956,194718.37939441678
135.80160097204015,-34.7145483264585,1705,Port Lincoln,16258,136.283,135.72112402300007,-34.658562168999936,4157,9641.486407520219
150.89957201135365,-33.952161798925054,552,Casula,16223,7.0719,150.12112402300005,-35.85856216899994,3661,223129.9990065789
151.71161877353876,-32.94421163331231,224,Adamstown - Kotara,16213,8.0182,152.82112402300007,-32.25856216899994,5302,128952.50202991617
138.64111667357759,-34.93735773303645,1584,Toorak Gardens,16206,6.6869,137.67112402300006,-34.95856216899993,4027,88638.89682140469
145.13029216765966,-37.86643348408908,923,Mount Waverley - North,16175,6.484,146.22112402300007,-39.45856216899993,2016,200620.0926214495
145.2532093439097,-38.062185768967396,904,Lynbrook - Lyndhurst,16166,7.3581,147.12112402300005,-38.85856216899994,2291,185456.16202370852
150.57756117667728,-34.831230766499225,281,North Nowra - Bomaderry,16162,99.7318,149.82112402300007,-35.85856216899994,3660,133111.28321255196
153.03875373305485,-27.64451593194097,1116,Parkinson - Drewvale,16137,12.6742,151.92112402300006,-28.058562168999934,7203,119263.2632808434
138.6006656950671,-34.92860628198837,1572,Adelaide,16137,10.4824,137.97112402300007,-35.558562168999934,3756,90374.85800790608
153.29080847269327,-27.64780612708125,1050,Redland Bay,16088,46.8997,152.07112402300007,-28.35856216899994,7067,143512.3038679395
152.9053540161275,-27.68532612344562,1346,Springfield Lakes,16068,18.4141,151.77112402300006,-27.758562168999937,7338,112146.92425450883
150.82413218441772,-34.44184528426594,132,Unanderra - Mount Kembla,16018,25.1483,150.87112402300008,-36.158562168999936,3527,190503.86514285952
115.74779824271933,-32.274311238371915,1935,Rockingham,16017,35.7219,114.87112402300006,-32.558562168999934,5039,88284.07572125799
144.91859855256445,-37.651120288830086,834,Meadow Heights,15986,4.6252,143.97112402300007,-36.158562168999936,3504,185913.49536324013
153.14838356099625,-27.60356469702924,1374,Rochedale South - Priestdale,15984,13.0112,151.77112402300006,-27.158562168999936,7610,144886.8757782695
150.97311296681372,-33.874362700969435,504,Fairfield - East,15972,5.7115,148.47112402300007,-33.75856216899994,4607,231999.66126717665
145.2432157475292,-37.91939508477544,846,Rowville - Central,15969,8.2003,147.42112402300006,-37.658562168999936,2836,194012.4152232288
153.53622554815226,-28.22227649766861,257,Banora Point,15961,9.4424,152.97112402300007,-28.958562168999936,6798,98559.3538311536
146.72068012349214,-19.304093997901408,1525,Kirwan - West,15954,9.3421,146.97112402300007,-19.358562168999935,11130,26999.465755681893
150.8968713359306,-34.37089763700464,146,Corrimal - Tarrawanna - Bellambi,15950,11.0648,151.17112402300006,-36.158562168999936,3528,199889.47630015152
138.58697537409142,-34.979373964929025,1640,Colonel Light Gardens,15941,6.761,138.72112402300007,-35.85856216899994,3623,98298.75173640581
115.77582370202887,-31.83288340739912,1819,Duncraig,15941,7.6491,114.87112402300006,-31.35856216899994,5583,100688.44529146836
153.09203130431268,-27.57924691891036,1101,Eight Mile Plains,15939,7.6829,151.92112402300006,-26.858562168999935,7747,140822.52813097136
150.7335550183697,-33.7462169093507,476,Cambridge Park,15937,6.5871,149.97112402300007,-31.958562168999936,5428,210699.69800653853
115.81711124879153,-31.865036508387647,1831,Balcatta - Hamersley,15885,10.3604,114.72112402300006,-31.658562168999936,5447,106326.80317893918
153.41107067308013,-28.088841031885508,1303,Varsity Lakes,15829,5.9507,152.67112402300006,-28.958562168999936,6797,120564.38052237841
145.29117166674766,-37.80128914698473,862,Croydon - East,15779,8.0982,146.97112402300007,-36.75856216899994,3242,188646.35281492522
115.51261975031684,-32.00639993948061,1913,Fremantle,15759,29.2192,114.72112402300006,-32.25856216899994,5175,79747.761896511
151.22097698330495,-33.91339931134532,360,Kensington (NSW),15748,2.6422,153.57112402300007,-34.35856216899994,4352,222325.34532814447
150.80867919744503,-33.635500293959886,486,Windsor - Bligh Park,15746,22.73,149.22112402300007,-32.25856216899994,5290,212964.2453904717
145.2482898015758,-38.10183643210224,902,Cranbourne West,15746,12.8981,145.17112402300006,-39.75856216899994,1876,184036.63533965073
145.23014869460098,-37.89724144880152,844,Knoxfield - Scoresby,15742,15.2651,147.42112402300006,-38.25856216899994,2564,196375.8075016743
150.83538711951468,-33.928350474103766,538,West Hoxton - Middleton Grange,15740,9.2626,148.62112402300005,-34.658562168999936,4200,219359.57217489576
151.42821054653396,-33.354197341622736,46,Chittaway Bay - Tumbi Umbi,15714,24.4986,151.62112402300005,-31.658562168999936,5570,188902.04425615436
150.45088684395657,-35.34345661201397,286,Ulladulla,15671,46.7766,150.57112402300007,-36.158562168999936,3526,91087.79946463343
144.91363918935673,-37.77708967599425,690,Ascot Vale,15667,3.8361,142.92112402300006,-37.058562168999934,3093,193570.9093374022
144.88138627605844,-37.81791044728291,952,Yarraville,15599,5.6198,143.37112402300008,-39.158562168999936,2142,198763.71363585006
152.77266389744153,-27.643633751006977,1335,Raceview,15594,9.1487,151.62112402300005,-27.458562168999936,7474,115570.30926984246
145.06961211228543,-37.745571224296306,777,Heidelberg - Rosanna,15578,6.3717,143.07112402300007,-36.75856216899994,3229,208405.07109237637
153.2858949430532,-28.819450060416017,250,Lismore,15574,63.3098,153.42112402300006,-29.258562168999937,6664,50418.02624939729
151.45831284551545,-33.24180999519621,55,Warnervale - Wadalba,15573,42.89,151.02112402300006,-31.658562168999936,5568,180314.06908504904
115.94518884511473,-31.903711406975756,1791,Bassendean - Eden Hill - Ashfield,15563,10.3449,116.52112402300006,-31.058562168999934,5725,108514.65240292509
138.46833852253928,-35.28931924592795,1644,Aldinga,15554,35.3303,138.42112402300006,-35.85856216899994,3622,63300.67530125979
145.0680698645606,-37.91481973636943,760,Bentleigh East (North),15548,4.5989,143.82112402300007,-39.45856216899993,2008,202818.84823273926
153.21076407559164,-27.49954652115478,1044,Birkdale,15485,11.5987,152.07112402300007,-26.558562168999938,7883,153812.91356874563
153.08051908105338,-27.533716924549786,1104,Mount Gravatt,15479,7.3648,152.22112402300007,-28.658562168999936,6932,150566.87904853435
138.5613069965432,-35.008540538526326,1633,Mitchell Park,15473,7.5687,137.52112402300006,-35.25856216899994,3891,98778.8624212719
152.74035290670074,-29.63538251512133,80,Grafton Region,15446,8445.8909,152.67112402300006,-29.558562168999934,6525,10838.842866453831
115.8501507543519,-32.15151631645109,1908,Success - Hammond Park,15440,8.8607,115.02112402300006,-32.85856216899994,4904,110529.14772009267
153.28672835169195,-27.586937951241392,1053,Victoria Point,15424,13.4057,151.77112402300006,-28.35856216899994,7066,171892.37604286347
147.01360390503578,-36.059623874105675,174,Albury - East,15413,101.514,147.12112402300005,-35.85856216899994,3651,24326.146570767272
150.96178811265509,-31.092405065922197,205,Tamworth - North,15410,76.0423,150.72112402300007,-31.058562168999934,5839,23271.509389698494
153.2718814465546,-28.75553034574477,251,Lismore Region,15384,1233.2421,153.12112402300005,-29.258562168999937,6663,57653.60844406158
152.0059014277174,-28.232540602678284,1230,Warwick,15378,158.7232,151.62112402300005,-28.058562168999934,7202,42430.571567457206
116.0431122634343,-31.960942419867628,1890,Kalamunda - Maida Vale - Gooseberry Hill,15377,28.1238,117.12112402300006,-32.25856216899994,5183,106964.01390320402
145.1693611462632,-37.76949778180319,737,Doncaster East (North),15361,6.4029,146.82112402300007,-36.45856216899993,3378,206678.03063955414
151.7303022610871,-32.89140443559086,229,Mayfield - Warabrook,15314,7.5372,152.67112402300006,-31.958562168999936,5437,136127.252217433
151.45342695622446,-33.08282024144893,220,Morisset - Cooranbong,15311,330.5208,151.92112402300006,-31.658562168999936,5571,163952.07298376667
153.39592601975423,-27.96512007300362,1307,Southport - North,15310,7.6161,152.37112402300008,-28.958562168999936,6796,148978.5074171789
138.50535380750017,-34.917773325030474,1664,Henley Beach,15303,5.9563,137.52112402300006,-34.658562168999936,4163,94560.20046353606
144.73346488360335,-37.91140271692269,972,Point Cook - South,15299,9.4222,142.77112402300006,-38.558562168999934,2412,186218.98872748326
153.26084795083383,-27.567570531670388,1052,Thornlands,15299,21.6475,151.47112402300007,-27.758562168999937,7337,177852.23911131197
153.26727400183208,-27.53307508356206,1048,Cleveland,15292,11.8548,153.27112402300006,-25.958562168999936,8159,174445.47726602602
138.54048858983143,-35.0125497880976,1636,Warradale,15279,6.0145,137.67112402300006,-35.558562168999934,3755,99620.67347594566
153.1410149433271,-27.449856844383092,1062,Wynnum West - Hemmant,15266,12.2743,152.22112402300007,-26.258562168999937,8020,160558.01519719439
115.89587240641235,-31.96517345614108,1873,Victoria Park - Lathlain - Burswood,15264,7.5755,116.97112402300007,-32.558562168999934,5046,120807.30168706858
149.17997450861873,-21.09395117764086,1384,Andergrove - Beaconsfield,15259,17.556,149.07112402300007,-21.158562168999936,10321,13380.483960562577
151.53095579804508,-33.30395392676659,52,The Entrance,15237,13.8576,153.27112402300006,-32.558562168999934,5167,182540.76942170793
152.856777588032,-25.29659010190242,1563,Torquay - Scarness - Kawungan,15197,10.9419,152.97112402300007,-25.358562168999935,8430,13404.059737629637
153.0859092856171,-26.540625865479292,1467,Coolum Beach,15174,18.1108,152.97112402300007,-25.958562168999936,8158,65495.811895273095
153.46336665435945,-28.1161983678985,1275,Palm Beach,15157,6.3315,152.82112402300007,-29.258562168999937,6662,141307.18431636223
115.77470608478355,-32.069625738283186,1914,Fremantle - South,15151,7.3037,114.57112402300007,-31.958562168999936,5310,114380.85373314218
145.28341967505617,-37.89287400535205,853,Ferntree Gully (South) - Upper Ferntree Gully,15149,9.1499,147.57112402300007,-37.95856216899993,2700,201271.92245949944
153.06339199816256,-27.06337752349426,1404,Beachmere - Sandstone Point,15148,110.0961,152.67112402300006,-25.958562168999936,8157,128495.56463944033
153.07659574174855,-27.598127998436883,1119,Runcorn,15146,6.6898,151.92112402300006,-28.658562168999936,6931,163388.50544025353
115.84254809447724,-32.03527430193663,1925,Booragoon,15118,6.7888,116.07112402300007,-33.158562168999936,4771,126398.71886778712
144.3215482857143,-38.10212755037861,624,North Geelong - Bell Park,15109,21.9322,142.92112402300006,-38.85856216899994,2277,148264.6957427597
147.14883614964157,-35.14667439711983,275,Wagga Wagga Region,15107,9334.6875,147.12112402300005,-35.25856216899994,3923,12666.779464774643
144.92129905521224,-37.765717415228714,693,Moonee Ponds,15084,4.3551,142.62112402300005,-37.658562168999936,2820,203168.11417036524
138.6470471752571,-34.83011179531372,1611,Ingle Farm,15072,7.4263,139.02112402300006,-34.058562168999934,4440,92231.60217303688
146.79101943480882,-36.11735851258369,650,West Wodonga,15071,153.8763,146.67112402300006,-36.158562168999936,3513,11720.226160480437
140.82638992874865,-37.83214216422573,1730,Mount Gambier - East,15071,66.7535,140.97112402300007,-37.95856216899993,2678,18946.18918025251
151.1278564980804,-33.830120274581795,523,Gladesville - Huntleys Point,15070,4.7162,153.57112402300007,-33.158562168999936,4896,238953.38388058677
152.82857254670947,-31.08141831913657,157,Kempsey,15058,195.1562,152.82112402300007,-31.058562168999934,5846,2631.7777488502
149.05806159796217,-35.38632141941994,2263,Kambah,15008,11.3361,148.92112402300006,-35.25856216899994,3929,18866.6799689921
138.5433434367582,-34.984607660943624,1634,Morphettville,14947,6.2005,139.62112402300005,-35.25856216899994,3898,102839.14484733646
151.1670568333025,-33.86742472387409,405,Lilyfield - Rozelle,14933,3.6039,153.12112402300005,-35.25856216899994,3943,236577.56003196488
138.53439477156502,-34.906535608805605,1663,Flinders Park,14918,6.3834,137.67112402300006,-34.35856216899994,4299,99805.40471885132
138.65837723188068,-34.804016838962596,1612,Para Hills,14915,10.173,138.12112402300005,-34.058562168999934,4437,96313.5597217197
138.59271051201543,-34.88403368726,1592,Prospect,14908,5.4754,139.77112402300006,-34.95856216899993,4034,107998.23055441369
144.90432076436335,-37.580505402321826,841,Craigieburn - West,14905,6.2118,145.02112402300006,-35.85856216899994,3644,191366.45438332716
153.0975617464795,-27.673493872555817,1359,Marsden,14903,6.9167,151.47112402300007,-27.158562168999936,7609,170656.65761240062
147.61390429709112,-37.829205813612774,658,Bairnsdale,14887,155.0115,147.72112402300007,-37.658562168999936,2837,21166.290067378704
115.93436951766036,-31.94146541590135,1868,Belmont - Ascot - Redcliffe,14876,10.8529,117.12112402300006,-31.658562168999936,5455,116681.1763827868
143.80255024423417,-37.49755742713587,585,Wendouree - Miners Rest,14858,67.5734,142.62112402300005,-37.058562168999934,3092,115551.89780151022
145.0464748979462,-37.74294366833256,778,Heidelberg West,14840,6.6912,145.32112402300007,-35.85856216899994,3645,210541.60844383013
145.1245698346045,-38.05672825534206,765,Chelsea - Bonbeach,14810,5.423,144.87112402300008,-39.75856216899994,1875,190196.30761605894
138.58080861754615,-35.54160649396524,1720,Victor Harbor,14786,128.2644,139.02112402300006,-35.85856216899994,3624,53148.79211062237
147.05622549850278,-38.104493862596016,680,Sale,14783,45.6023,147.72112402300007,-38.25856216899994,2565,60715.58026795822
142.110831875547,-34.22076231904237,1005,Mildura - South,14775,50.9981,142.17112402300006,-34.35856216899994,4314,16262.04269812763
144.77055449192434,-37.73898438835522,933,Kings Park (Vic.),14769,4.4323,143.22112402300007,-36.45856216899993,3366,197894.16985206454
138.491873043442,-34.83626236930759,1671,Largs Bay - Semaphore,14767,6.7241,137.37112402300008,-34.95856216899993,4026,103336.21663176031
144.41767179446066,-38.17974025570759,622,Newcomb - Moolap,14757,43.2941,143.07112402300007,-39.158562168999936,2141,159808.5867198561
115.86733043460437,-31.99970484627339,1895,Como,14747,6.3895,116.97112402300007,-31.35856216899994,5590,126522.83525847121
153.43222550188347,-28.087117651427015,1267,Burleigh Waters,14745,6.7193,152.52112402300006,-29.258562168999937,6661,157432.8552381011
146.94156233837714,-36.03170952295918,178,Lavington,14737,21.467,146.82112402300007,-35.85856216899994,3650,22071.944978030988
151.1528197787216,-33.96140807119038,396,Monterey - Brighton-le-Sands - Kyeemagh,14728,3.3799,152.22112402300007,-35.85856216899994,3668,231999.1244949638
145.15641418015755,-37.791322943358246,738,Doncaster East (South),14725,4.7684,146.37112402300008,-36.158562168999936,3512,211016.34567676843
144.8361395971473,-37.83581916396162,943,Altona North,14724,16.1844,142.47112402300007,-37.95856216899993,2683,208462.69893157552
117.89964286776042,-35.00836426879264,1941,Albany,14691,30.5001,117.87112402300006,-34.95856216899993,3961,6107.78204598346
144.77210080961692,-36.16368621755767,1012,Echuca,14688,183.8175,144.72112402300007,-35.85856216899994,3643,34165.62715759687
144.27011970519789,-36.748392977684766,595,Bendigo,14686,15.974,143.67112402300006,-36.158562168999936,3503,84659.02419505455
145.3039545704582,-38.02480852555377,897,Narre Warren - South West,14661,9.3054,146.52112402300006,-39.45856216899993,2017,191123.53974742928
150.71939283926542,-34.57682388535519,137,Albion Park - Macquarie Pass,14653,75.1256,149.52112402300006,-35.85856216899994,3659,179224.83636153143
153.14927271814824,-28.095744293753807,1283,Tamborine - Canungra,14652,524.1823,152.07112402300007,-28.958562168999936,6795,142405.79582872998
150.89599500312923,-34.425583990911505,151,Wollongong - East,14649,5.5037,151.47112402300007,-36.158562168999936,3529,199249.46151728538
138.49010388640838,-34.86862552860922,1668,West Lakes,14630,8.5515,137.82112402300007,-34.058562168999934,4436,108869.16677405822
144.94234947779185,-37.76311460495609,684,Brunswick West,14629,3.1795,144.42112402300006,-35.85856216899994,3642,216405.1370563501
115.83363036773466,-32.26060073467798,1916,Bertram - Wellard (West),14610,12.4479,115.47112402300007,-33.158562168999936,4769,105219.56732912114
152.53212344283008,-32.2214461041683,154,Forster,14607,33.873,152.97112402300007,-31.958562168999936,5438,50667.84882998595
115.78430839292864,-31.91695749418647,1843,Wembley Downs - Churchlands - Woodlands,14591,8.0214,115.02112402300006,-31.058562168999934,5720,119650.17854192568
150.6583025150335,-33.746017283596196,478,Emu Plains - Leonay,14566,13.794,148.47112402300007,-34.35856216899994,4335,213062.38510561653
144.9694302223463,-37.70523124401176,823,Fawkner,14558,5.0848,145.62112402300005,-35.85856216899994,3646,213020.49148674958
151.61472654210712,-32.91363524836285,219,Edgeworth - Cameron Park,14552,15.6077,152.22112402300007,-31.658562168999936,5572,150437.3476502824
145.22612642143832,-37.852256642187804,849,Wantirna,14546,8.3064,146.97112402300007,-39.158562168999936,2154,210218.97349420696
122.22307258981918,-17.944596716044625,1967,Broome,14518,50.0425,122.22112402300006,-17.858562168999935,11728,9523.747927489243
138.49921145112245,-34.79152495592899,1672,North Haven,14455,14.8433,139.32112402300007,-34.058562168999934,4441,110989.54550348596
145.69308762103373,-16.814707280316686,1183,Trinity Beach - Smithfield,14450,22.1512,145.77112402300006,-16.958562168999936,12214,17959.651975007862
151.2649847143313,-33.75151396561096,443,Beacon Hill - Narraweena,14428,4.3406,153.42112402300006,-32.85856216899994,5032,223893.67357272847
152.67112748587564,-26.17660926276415,1555,Gympie - North,14427,42.6859,152.37112402300008,-25.958562168999936,8156,38531.244286490284
152.95856606839646,-27.158453640435027,1414,Burpengary,14420,22.3343,151.77112402300006,-26.558562168999938,7882,135438.5570816435
140.71996046574358,-37.80744999503754,1731,Mount Gambier - West,14386,126.5343,140.67112402300006,-37.95856216899993,2677,17313.62064128991
145.28494438571778,-37.87732005816374,852,Ferntree Gully (North),14382,6.9851,145.47112402300007,-39.75856216899994,1877,209459.61919354482
152.5769788067312,-27.441432944559402,1323,Lowood,14376,617.6974,151.62112402300005,-26.858562168999935,7746,114665.36885910347
145.11254393914143,-37.763799272600274,736,Templestowe Lower,14375,5.9386,147.42112402300006,-37.058562168999934,3108,218852.13455073084
115.74199717538119,-31.726351506621693,1818,Currambine - Kinross,14371,5.9596,115.77112402300007,-30.758562168999937,5858,107333.04121852189
138.00333675893063,-33.1886959023388,1694,Port Pirie,14360,75.2928,137.97112402300007,-33.158562168999936,4844,4493.980910956514
151.07701176220846,-33.9487201575713,386,Narwee - Beverly Hills,14337,3.3909,148.77112402300006,-34.95856216899993,4064,239674.21708429395
150.84599472224062,-34.47787401384596,133,Berkeley - Lake Heights - Cringila,14336,12.5307,150.27112402300006,-36.158562168999936,3525,193647.78834508022
145.16732648436675,-37.667539187775084,795,Wattle Glen - Diamond Creek,14330,26.8245,145.92112402300006,-35.85856216899994,3647,211722.12875951827
151.74353573467096,-32.947160892873214,230,Merewether - The Junction,14315,7.2464,153.12112402300005,-32.25856216899994,5303,150177.84677450132
153.03048655035846,-27.4060331234172,1072,Kedron - Gordon Park,14299,5.22,151.92112402300006,-26.258562168999937,8019,168293.8452773781
121.46911142596183,-30.758408642215308,1984,Kalgoorlie,14299,23.4948,121.47112402300007,-30.758562168999937,5877,193.4506233768128
152.88714301688202,-27.65164385652178,1338,Bellbird Park - Brookwater,14294,16.103,151.32112402300007,-27.458562168999936,7473,156140.620481061
115.81488226559202,-31.889895638792368,1840,Stirling - Osborne Park,14293,6.4972,116.07112402300007,-30.758562168999937,5859,127779.77595064082
115.78596891182119,-32.035828972056215,1924,Bicton - Palmyra,14264,6.3221,114.57112402300007,-32.558562168999934,5038,128269.02020377923
115.9214225647775,-32.039527342114184,1878,Parkwood - Ferndale - Lynwood,14259,8.6347,116.82112402300007,-32.85856216899994,4910,124120.23321153573
144.3421086368721,-38.17852276893656,614,Belmont,14255,9.3677,143.52112402300006,-39.45856216899993,2007,158980.1489935785
152.91921953264168,-28.137739681994205,1347,Beaudesert,14242,1628.0131,151.62112402300005,-28.658562168999936,6930,139694.20953124278
151.40261844828603,-33.42318165964014,30,Erina - Green Point,14240,33.7934,150.72112402300007,-31.658562168999936,5567,205885.0079709796
150.61278642076616,-35.103542248310035,283,St Georges Basin - Erowal Bay,14219,76.9396,149.97112402300007,-36.158562168999936,3524,130688.74289059185
138.5224074632525,-35.01883923522272,1628,Brighton (SA),14212,5.9168,138.12112402300005,-35.85856216899994,3621,100034.41797986666
151.07556308686503,-33.935104667676164,381,Roselands,14208,3.6461,152.97112402300007,-35.558562168999934,3806,250114.99696093917
151.30577446481777,-33.48504836357457,41,Woy Woy - Blackwall,14181,17.4225,150.42112402300006,-31.658562168999936,5566,218913.9736614961
151.9337683548471,-27.605279205908175,1489,Darling Heights,14173,12.536,151.17112402300006,-27.758562168999937,7336,77129.6863517455
145.0376922477228,-37.98084213760814,746,Beaumaris,14172,5.9678,144.57112402300007,-39.75856216899994,1874,201455.11404396655
145.49623403072175,-37.62613207166197,872,Healesville - Yarra Glen,14172,369.5236,147.27112402300006,-36.75856216899994,3243,184671.44078433883
115.75153065704451,-32.37340886252411,1934,Port Kennedy,14155,21.2107,115.17112402300006,-33.158562168999936,4768,102658.8018135678
152.81818328325437,-25.28567591695263,1561,Pialba - Eli Waters,14137,18.7194,152.82112402300007,-25.058562168999938,8566,25158.799957084604
150.74955228716126,-33.589929006162016,485,Richmond - Clarendon,14136,74.6728,149.67112402300006,-31.958562168999936,5427,207211.8312221597
116.03094130926506,-32.0602169739923,1886,Maddington - Orange Grove - Martin,14133,53.2922,117.27112402300007,-31.958562168999936,5319,117720.86996520442
151.1392496587623,-33.882750139634,411,Haberfield - Summer Hill,14129,3.4746,152.52112402300006,-35.85856216899994,3669,252987.06513101322
151.75673565228215,-32.77029195532667,121,Raymond Terrace,14107,109.4864,152.52112402300006,-31.658562168999936,5573,142791.42821762126
144.929403032338,-37.684099898754155,830,Broadmeadows,14106,8.8268,144.12112402300005,-35.85856216899994,3641,215046.01741280535
145.30937520093858,-38.005080078771726,896,Narre Warren - North East,14091,4.874,145.77112402300006,-39.75856216899994,1878,198734.4087164699
145.04151304480857,-37.90029076465055,759,Ormond - Glen Huntly,14089,2.9371,144.27112402300006,-39.75856216899994,1873,216858.95432783218
137.82982475508257,-32.49959813522523,1714,Port Augusta,14078,253.9026,137.97112402300007,-32.558562168999934,5116,14797.943330522403
145.01771128048856,-37.84159228177223,715,Toorak,14072,4.3233,142.47112402300007,-37.35856216899994,2955,231183.6560618828
146.34495011142207,-41.177160426864134,2085,Devonport,14069,10.2768,146.22112402300007,-41.25856216899994,1200,13767.903254885443
115.77481217291906,-31.74587916342845,1824,Joondalup - Edgewater,14062,15.6229,115.47112402300007,-30.758562168999937,5857,113220.045533685
145.26088328456987,-37.98342750609798,895,Endeavour Hills - South,14061,5.5873,146.07112402300007,-39.75856216899994,1879,209225.17800050008
151.6377454577388,-32.875501397709414,228,Maryland - Fletcher - Minmi,14031,17.2635,151.77112402300006,-31.35856216899994,5706,168674.27072286443
146.86707064573736,-37.8423750235708,678,Maffra,14031,2532.3197,147.57112402300007,-37.35856216899994,2972,82151.93545814336
144.81293803847507,-37.72643177124261,932,Keilor Downs,14024,7.6597,142.77112402300006,-36.75856216899994,3228,210613.09156166692
151.89318954090484,-32.71721976425675,124,Williamtown - Medowie - Karuah,14016,365.182,152.07112402300007,-31.35856216899994,5707,151585.73308094117
115.88669250969089,-32.03441334002939,1879,Riverton - Shelley - Rossmoyne,14016,6.4202,116.37112402300006,-33.158562168999936,4772,132695.53960969902
146.42115295761147,-38.20760212028924,673,Morwell,14008,85.4861,147.57112402300007,-38.558562168999934,2428,107767.50990021977
148.1625225465322,-23.535395225427713,1233,Emerald,13982,38.9821,148.17112402300006,-23.558562168999938,9230,2711.7739418390743
144.98339237816305,-37.24633650406273,633,Kilmore - Broadford,13971,461.5232,143.82112402300007,-35.85856216899994,3640,185854.64605576638
151.23916334804514,-33.91972765630674,366,Randwick - South,13946,3.3726,153.57112402300007,-34.95856216899993,4080,243333.50224068685
151.31578742930517,-33.65194332119062,441,Newport - Bilgola,13927,5.7981,153.57112402300007,-32.558562168999934,5168,242939.11935403658
151.42817903155395,-33.44501226060235,38,Terrigal - North Avoca,13909,10.1073,153.42112402300006,-32.25856216899994,5304,228284.9021340435
145.06535694515478,-37.92938064102826,761,Bentleigh East (South),13907,4.5882,143.97112402300007,-39.75856216899994,1872,224175.68609897146
152.98203648484053,-27.444481692875566,1173,Ashgrove,13901,6.5216,153.57112402300007,-25.958562168999936,8160,174754.36929663125
138.58158917820285,-35.08695348001485,1652,Happy Valley,13882,10.17,139.47112402300007,-35.558562168999934,3761,96333.05518204815
145.04533509394506,-37.63582064443629,805,Epping - East,13879,7.7691,143.37112402300008,-36.158562168999936,3502,221676.06154896787
151.22308460868524,-23.88725495500382,1258,Clinton - New Auckland,13874,22.7815,151.32112402300007,-23.858562168999935,9105,10479.141899393242
145.27836373605027,-37.788911004785824,863,Croydon - West,13837,6.7979,147.12112402300005,-36.45856216899993,3379,220482.0205185081
138.56516261533915,-34.97798564790206,1630,Edwardstown,13834,5.5375,137.82112402300007,-35.85856216899994,3620,118788.31812498864
153.33957173919615,-27.846948652507574,1292,Coomera,13807,24.6577,152.22112402300007,-29.258562168999937,6660,190921.20403781135
151.5586649809998,-33.01625221395906,221,Toronto - Awaba,13801,43.6626,151.47112402300007,-31.35856216899994,5705,183998.31566005823
138.6041624104351,-34.802158235081045,1619,Mawson Lakes - Globe Derby Park,13795,9.6165,138.57112402300007,-33.75856216899994,4574,115798.78209967574
115.8047013116727,-31.831717025228986,1820,Greenwood - Warwick,13782,8.5644,114.57112402300007,-31.35856216899994,5582,128292.6772161646
115.84373659424018,-31.72318866103026,1854,Tapping - Ashby - Sinagra,13765,47.8116,116.37112402300006,-30.758562168999937,5860,118159.68397825751
145.31279582444503,-38.05923333464283,906,Narre Warren South (East),13756,6.2204,146.82112402300007,-39.45856216899993,2018,203263.18439909682
151.64100570131689,-32.963186432859345,216,Warners Bay - Boolaroo,13753,12.5402,151.17112402300006,-31.35856216899994,5704,183365.1267214409
138.535670889244,-35.1200473475391,1656,Morphett Vale - East,13712,7.6836,139.32112402300007,-35.85856216899994,3625,108597.15994315053
145.06871287907225,-37.981576220249735,769,Mentone,13709,4.45,147.42112402300006,-38.85856216899994,2292,227328.0275202569
153.16718193475745,-27.440475594824864,1061,Wynnum,13691,6.1324,151.32112402300007,-26.858562168999935,7745,194016.21801403767
153.21927138934075,-27.698684222948337,1349,Eagleby,13690,13.816,151.47112402300007,-28.35856216899994,7065,186813.33088888353
144.31561118779885,-36.75225867062913,597,East Bendigo - Kennington,13663,17.1489,143.52112402300006,-35.85856216899994,3639,122170.39613394572
151.95501250296135,-27.574886460926958,1499,Toowoomba - Central,13662,9.5179,151.32112402300007,-28.058562168999934,7201,82300.9052638446
150.6969909643833,-33.74783904254185,483,Penrith,13630,10.3941,148.47112402300007,-33.158562168999936,4879,217020.17470514833
145.40284533268417,-38.04675716648792,883,Beaconsfield - Officer,13622,41.1778,147.27112402300006,-39.158562168999936,2155,204243.9823833713
150.30934209187328,-33.70267948316482,471,Katoomba - Leura,13613,40.8734,148.62112402300005,-32.85856216899994,5016,183023.03445008682
145.21512889676669,-38.10133153495202,981,Skye - Sandhurst,13613,19.8152,146.37112402300008,-39.75856216899994,1880,209503.32512717522
151.92310901325297,-27.526169940707216,1502,Wilsonton,13600,18.9445,151.02112402300006,-27.458562168999936,7472,89449.85607042344
153.0455640247606,-27.466313284597053,1150,New Farm,13578,2.1438,151.47112402300007,-26.558562168999938,7881,185825.16477575366
153.5521521914182,-28.258032552810008,252,Kingscliff - Fingal Head,13514,38.4355,153.57112402300007,-29.558562168999934,6528,144147.35727549018
153.5084037397261,-28.40026351856199,255,Pottsville,13497,189.4635,153.42112402300006,-29.85856216899994,6392,161849.19578668938
144.57601330990755,-38.17393165095372,625,Clifton Springs,13494,65.1494,143.22112402300007,-39.45856216899993,2006,184884.18955452836
153.00447053226947,-27.498021851742813,1137,St Lucia,13487,3.4245,152.07112402300007,-25.958562168999936,8155,194200.2018716067
151.9634852698947,-27.423040320664178,1493,Highfields,13464,149.2803,150.87112402300008,-27.158562168999936,7607,112044.64119299299
115.80052193519923,-31.810347012113834,1825,Kingsley,13449,7.8538,116.82112402300007,-31.058562168999934,5726,127914.1163314893
145.12531526264013,-37.943233439522224,909,Clayton South,13443,7.938,145.02112402300006,-40.058562168999934,1740,235001.26519225366
150.94799935736705,-33.804178988390674,518,Pendle Hill - Girraween,13412,4.4615,148.32112402300007,-34.058562168999934,4471,244513.01120856378
153.33162695364857,-28.82277142481632,248,Goonellabah,13405,25.2269,153.12112402300005,-29.85856216899994,6391,116608.50579228767
151.84498321866715,-27.565380747135116,1501,Toowoomba - West,13401,161.2954,151.02112402300006,-28.058562168999934,7200,97859.54967167688
148.98179296017452,-20.260673920173822,1401,Airlie - Whitsundays,13399,304.0111,148.92112402300006,-20.258562168999937,10729,6342.816206226249
115.72653107469918,-31.694402801167566,1848,Clarkson,13393,10.7632,115.17112402300006,-30.758562168999937,5856,116470.66114969862
115.89983603356107,-31.936584811198458,1793,Maylands,13357,5.0165,114.42112402300006,-31.658562168999936,5446,143390.2824026375
144.55520303220246,-37.49550014703865,818,Gisborne,13345,211.0569,142.92112402300006,-36.45856216899993,3365,185500.05140500862
138.6277871562913,-34.9037556070232,1590,St Peters - Marden,13332,5.9826,139.77112402300006,-34.35856216899994,4306,121034.40792643228
151.2161065354731,-33.76658740304212,446,Forestville - Killarney Heights,13326,8.9311,150.12112402300005,-31.658562168999936,5565,255312.96357345744
145.10753513585587,-38.02829976639318,768,Edithvale - Aspendale,13307,5.1001,145.32112402300007,-40.058562168999934,1741,226143.24489038836
151.11051257252268,-33.941698274796266,393,Kingsgrove (South) - Bardwell Park,13299,3.7871,151.77112402300006,-36.158562168999936,3530,253208.40271368658
145.1479238737716,-37.97108191778573,916,Springvale South,13285,4.56,144.72112402300007,-40.058562168999934,1739,234665.80798857345
150.4191005379939,-34.48671442028535,288,Bowral,13280,55.572,149.07112402300007,-35.558562168999934,3793,171092.73706363604
153.07642231868218,-27.466180106063188,1158,Morningside - Seven Hills,13279,6.6452,151.62112402300005,-26.258562168999937,8018,197019.48868681438
145.6911996504564,-16.894502729406895,1182,Redlynch,13278,59.3881,145.47112402300007,-16.958562168999936,12213,24492.831443300533
150.68216062882783,-34.06547600868274,452,Camden - Ellis Lane,13277,26.1934,148.47112402300007,-34.95856216899993,4063,225911.01892635835
144.81506339414025,-37.86036384169665,941,Altona,13277,17.6847,142.47112402300007,-38.558562168999934,2411,219426.99663366214
144.76751469145108,-37.539467729079846,828,Sunbury,13272,129.5488,143.07112402300007,-36.158562168999936,3501,215340.40234286885
116.73031078721102,-22.498066619209883,1976,Ashburton (WA),13262,100827.032,116.67112402300006,-22.358562168999935,9669,16605.507101286923
145.68259418159911,-33.90219252556779,261,Griffith Region,13238,23020.2043,145.77112402300006,-33.75856216899994,4598,17915.105215712905
151.03026756156504,-33.74991395170445,297,West Pennant Hills,13224,7.8291,148.77112402300006,-32.558562168999934,5152,248741.79992675738
152.9120870353541,-27.77735739472348,1362,Greenbank,13224,258.4524,151.77112402300006,-28.958562168999936,6794,172173.5471670766
