long,lat,id,name,pop,area,hex_long,hex_lat,hex_id,distance
144.9626250427989,-37.81373060337506,699,Melbourne,41473,2.369,144.99938302460006,-37.95856216899993,3218,16397.00861146142
115.98000716753141,-31.7901760795201,1806,Ellenbrook,37251,37.7884,116.04938302460006,-31.658562168999936,6545,16005.87358880808
144.64663523531388,-37.82669254984309,966,Tarneit,36532,62.142,144.69938302460005,-37.95856216899993,3217,15354.195930116572
151.20676893492129,-33.90966881594098,348,Waterloo - Beaconsfield,35323,3.5809,151.14938302460007,-34.058562168999934,5358,17345.334330665388
115.82249534389004,-32.36488638399784,1932,Baldivis,34287,141.544,115.74938302460006,-32.25856216899994,6218,13653.288973055996
115.86278847418652,-31.950444965350204,1788,Perth City,33898,10.9161,115.89938302460007,-31.958562168999936,6381,3574.9092463834927
150.91771134073866,-33.71034700652541,319,Parklea - Kellyville Ridge,33702,9.8132,150.99938302460006,-33.75856216899994,5520,9267.452391882993
145.00402944855597,-37.822870712232515,721,Richmond (Vic.),32848,6.2125,145.14938302460007,-37.658562168999936,3382,22287.025008076158
145.20974031957851,-38.03037578068305,910,Dandenong,32801,61.8243,145.29938302460008,-37.95856216899993,3219,11204.484680004347
153.24146274448844,-27.86109088422795,1299,Upper Coomera - Willow Vale,32210,125.8424,153.09938302460006,-27.758562168999937,8787,18029.972397208112
151.10554630417377,-33.914487407333276,378,Canterbury (South) - Campsie,32017,4.7777,151.29938302460008,-33.75856216899994,5521,24920.40838382208
153.0318640594118,-27.2335804936176,1432,North Lakes - Mango Hill,31141,27.1609,153.09938302460006,-27.158562168999936,9113,10669.946490595445
151.01725246199288,-33.82156927048667,515,Parramatta - Rosehill,30741,8.4965,150.69938302460005,-33.75856216899994,5519,30257.43422695258
151.24471797234835,-33.82932740302591,434,Mosman,30215,8.6503,151.44938302460005,-34.058562168999934,5359,31693.596204135523
151.18810742892364,-33.79766534610645,415,Chatswood (East) - Artarmon,29996,5.0678,151.14938302460007,-33.45856216899993,5684,37781.53378683559
151.20765738959508,-33.86818721039829,347,Sydney - Haymarket - The Rocks,29970,4.2934,151.59938302460006,-33.75856216899994,5522,38253.485960951264
150.98019288311335,-33.83074771684279,509,Merrylands - Holroyd,29836,6.7188,150.84938302460006,-34.058562168999934,5357,28013.161694781298
145.4897695794645,-38.09428869528668,888,Pakenham - South,29485,49.7574,145.59938302460006,-37.95856216899993,3220,17876.77648738098
150.75320415566753,-34.05906899087651,454,Mount Annan - Currans Hill,29235,26.134,150.54938302460005,-34.058562168999934,5356,18817.718345379195
144.90743721320587,-37.75082267923627,691,Essendon - Aberfeldie,28954,8.443,144.84938302460006,-37.658562168999936,3381,11448.281273766492
152.96568773681622,-27.61799405640614,1315,Forest Lake - Doolandella,28853,15.0377,152.94938302460005,-27.458562168999936,8950,17739.228681492947
150.9158337884068,-33.92337736175913,555,Liverpool,28680,6.3185,150.99938302460006,-34.35856216899994,5194,48882.13270680642
152.89872885256776,-31.478843363592638,165,Port Macquarie - East,28670,42.088,152.79938302460008,-31.35856216899994,6830,16342.559719189041
151.11216967684203,-33.81046129360005,529,Ryde,28506,7.2682,150.84938302460006,-33.45856216899993,5683,46019.262872418265
145.02161417811985,-37.7150403969643,785,Reservoir - East,28460,8.9663,145.44938302460005,-37.658562168999936,3383,38249.74111969176
151.04691460070103,-33.773780976478655,500,Carlingford,28396,9.7457,151.44938302460005,-33.45856216899993,5685,51159.25507966701
144.97994024867384,-37.86239609636675,710,St Kilda,28141,3.901,144.54938302460005,-37.658562168999936,3380,44173.795433935375
151.081262767882,-33.76894504613679,520,Epping - North Epping,28110,8.8806,150.54938302460005,-33.45856216899993,5682,60179.01591235519
151.60036830995682,-32.75436223972342,114,Maitland - East,28091,40.5895,151.74938302460006,-32.85856216899994,6012,18119.486698094424
151.166110748824,-33.821312210986285,417,Lane Cove - Greenwich,27960,9.0561,151.74938302460006,-34.058562168999934,5360,60003.27901255105
151.16101327168562,-33.88135231114882,404,Leichhardt - Annandale,27957,4.4723,151.29938302460008,-34.35856216899994,5195,54449.723149050245
151.15560060821394,-33.91121262240774,336,Marrickville,27924,5.8127,151.59938302460006,-34.35856216899994,5196,64325.97918700488
151.12071062334437,-33.95530808967937,392,Bexley,27881,5.2778,150.69938302460005,-34.35856216899994,5193,59247.88502563778
144.7742900724277,-37.787408047909345,930,Deer Park - Derrimut,27772,21.3348,144.39938302460007,-37.95856216899993,3216,38065.79605494942
144.96397061614974,-37.74484532507756,685,Coburg,27733,6.9346,144.99938302460006,-37.35856216899994,3544,42985.512530932676
144.6969056667684,-37.59275957661707,829,Sunbury - South,27706,131.1359,144.69938302460005,-37.35856216899994,3543,25992.872984373465
152.97147222179746,-27.063254101262128,1407,Caboolture,27635,74.4529,152.79938302460008,-27.158562168999936,9112,20067.575682794348
144.86435616310382,-37.75164510645556,815,Keilor East,27556,10.8916,144.24938302460006,-37.658562168999936,3379,55207.37882591576
145.16398455873713,-38.01458295079879,913,Keysborough,27377,30.2794,145.14938302460007,-38.25856216899994,3056,27110.900955689205
151.25606859907074,-33.92153530852602,358,Coogee - Clovelly,27325,3.8356,151.89938302460007,-33.75856216899994,5523,62228.76160773664
146.58893032719823,-38.19451008693207,674,Traralgon,27325,149.6729,146.64938302460007,-38.25856216899994,3061,8863.872960394969
150.93758187542142,-33.824157040659614,506,Greystanes - Pemulwuy,27324,11.8487,150.39938302460007,-33.75856216899994,5518,50372.44248819063
151.05851353107394,-33.90437593909994,370,Greenacre - Mount Lewis,27280,6.9817,150.24938302460006,-34.058562168999934,5355,76700.83353363285
144.96113896015237,-37.76648811759919,682,Brunswick,27123,5.1425,145.29938302460008,-37.35856216899994,3545,54247.85714799817
145.34808668794543,-38.06115706909839,890,Berwick - South,26930,14.8552,145.44938302460005,-38.25856216899994,3057,23641.52987471505
144.32551063808015,-38.053742613919326,615,Corio - Norlane,26894,80.8135,144.09938302460006,-37.95856216899993,3215,22495.4032294069
145.26861763715726,-38.038490837709254,903,Hampton Park - Lynbrook,26871,13.3423,144.84938302460006,-38.25856216899994,3055,44127.01847354189
115.32984745694667,-33.67599706367648,1747,Busselton,26828,196.2398,115.29938302460006,-33.75856216899994,5401,9583.013172575587
145.34222642729324,-38.10446554092674,899,Cranbourne East,26826,42.8901,145.74938302460006,-38.25856216899994,3058,39562.958673664136
151.24922457395854,-33.87764599096796,353,Double Bay - Bellevue Hill,26781,4.714,151.74938302460006,-33.45856216899993,5686,65668.04790239256
151.21225411725402,-33.79965929830148,419,Willoughby - Castle Cove - Northbridge,26738,10.7518,151.29938302460008,-33.158562168999936,5847,71562.70475809113
115.8344813484773,-31.76525483690649,1855,Wanneroo,26539,41.6742,115.74938302460006,-31.658562168999936,6544,14318.198128204498
153.04381868775098,-27.85496804225035,1363,Jimboomba,26536,249.6587,152.94938302460005,-28.058562168999934,8624,24399.704258243022
115.84754431276303,-31.80509678778101,1850,Madeley - Darch - Landsdale,26522,20.3512,115.59938302460006,-31.958562168999936,6380,28997.85386646017
150.99331648659896,-33.95548649142939,372,Panania - Milperra - Picnic Point,26461,14.3909,150.39938302460007,-34.35856216899994,5192,70702.02226966544
151.21921115610192,-33.73231792114606,447,Frenchs Forest - Belrose,26366,30.1321,150.99938302460006,-33.158562168999936,5846,66836.24013925508
151.28944951867965,-33.75602848030072,445,Dee Why - North Curl Curl,26354,4.0732,151.59938302460006,-33.158562168999936,5848,72257.63724861761
115.93174128656528,-31.965300704564132,1872,Rivervale - Kewdale - Cloverdale,26352,10.2384,116.19938302460007,-31.958562168999936,6382,25312.608339087383
145.0002579354674,-37.77236949628363,688,Northcote,26334,6.145,144.54938302460005,-38.25856216899994,3054,66931.61556009477
145.03412679514003,-37.803721411311436,730,Kew,26314,10.534,145.74938302460006,-37.658562168999936,3384,65079.30333553319
151.1823180877551,-33.89384281926832,342,Newtown - Camperdown - Darlington,26297,3.2812,152.04938302460005,-34.058562168999934,5361,82184.9396236951
151.0857509316863,-33.79190242605594,522,Eastwood - Denistone,26256,7.8201,150.69938302460005,-33.158562168999936,5845,78891.03715680573
151.08175890683327,-33.878680803102,413,Strathfield,26212,6.4515,151.14938302460007,-34.658562168999936,5032,86730.50105159028
151.0891346282887,-33.84358024524119,400,Concord West - North Strathfield,26116,5.103,150.24938302460006,-33.45856216899993,5681,88835.0282453588
151.29403531575932,-33.72923396439016,450,Narrabeen - Collaroy,25903,7.1622,152.04938302460005,-33.45856216899993,5687,76271.49253489089
151.10941449795243,-33.87811041319724,407,Burwood - Croydon,25879,4.4925,150.84938302460006,-34.658562168999936,5031,89821.09143451865
150.9463275571432,-33.89892894360585,541,Cabramatta - Lansvale,25844,7.5964,150.09938302460006,-33.75856216899994,5517,79934.70470256386
151.20149244461845,-33.92956875178369,332,Mascot - Eastlakes,25736,6.165,151.89938302460007,-34.35856216899994,5197,80046.1502883502
151.12624766878704,-33.88976780914895,406,Ashfield,25655,3.6699,151.44938302460005,-34.658562168999936,5033,90319.59402113383
150.93913712984528,-33.76190362195175,314,Lalor Park - Kings Langley,25611,11.7998,150.39938302460007,-33.158562168999936,5844,83639.92451854802
151.2440054470322,-33.97225285078519,359,Malabar - La Perouse - Chifley,25405,11.8254,151.74938302460006,-34.658562168999936,5034,89214.78869107174
144.9939268568844,-37.70977196842247,786,Reservoir - West,25295,10.1544,144.39938302460007,-37.35856216899994,3542,65428.575693915685
115.87103313013137,-31.886813157455084,1833,Dianella,25276,11.4949,116.04938302460006,-32.25856216899994,6219,44527.82620578079
151.1057500650865,-33.98476447542707,390,South Hurstville - Blakehurst,25248,6.2489,150.54938302460005,-34.658562168999936,5030,90599.0103270198
151.29785573886073,-33.68609549407599,442,Warriewood - Mona Vale,25179,11.6627,151.89938302460007,-33.158562168999936,5849,80951.43552244145
138.64403623189224,-34.84909142720154,1608,Northgate - Oakden - Gilles Plains,25155,11.2336,138.69938302460005,-34.95856216899993,4827,13155.536807913108
151.1181935885599,-33.92831071343392,379,Kingsgrove (North) - Earlwood,25014,8.2016,152.19938302460005,-33.75856216899994,5524,101826.98288406801
144.734467781132,-37.83276612379271,967,Truganina,24977,27.1648,144.24938302460006,-38.25856216899994,3053,63613.9240012021
153.4233424367135,-28.002452227116834,1312,Surfers Paradise,24969,5.7961,153.54938302460005,-28.058562168999934,8626,13866.617712215866
145.0603066480947,-38.230405528381596,985,Mornington,24894,21.0928,144.99938302460006,-38.558562168999934,2892,36812.431427166775
151.100629523881,-33.959473941436755,384,Hurstville,24845,3.6401,150.09938302460006,-34.35856216899994,5191,102393.07467716276
151.07340838709962,-33.97089400009523,385,Mortdale - Penshurst,24794,6.1164,149.94938302460005,-34.058562168999934,5354,104282.32953558343
145.19591410680724,-38.16259890295685,979,Langwarrin,24792,37.6199,145.29938302460008,-38.558562168999934,2893,44872.71108061506
150.9256246944207,-33.79332710119415,315,Seven Hills - Toongabbie,24788,11.2033,149.94938302460005,-33.45856216899993,5680,97899.68644644292
138.55056323538255,-34.95790525616358,1679,Plympton,24785,10.6969,138.39938302460007,-34.95856216899993,4826,13808.65534772114
146.93329488826944,-36.16898375309778,651,Wodonga,24773,278.8131,146.79938302460008,-36.158562168999936,4202,12104.773719350766
145.03170804923423,-37.824507926326774,728,Hawthorn,24700,5.6721,145.59938302460006,-37.35856216899994,3546,72027.54942371832
151.70807798691962,-32.97569145449432,210,Charlestown - Dudley,24689,22.2796,151.44938302460005,-32.85856216899994,6011,27465.046848835842
144.93202156650588,-37.72299752174169,824,Pascoe Vale,24631,6.9844,144.84938302460006,-37.058562168999934,3707,74102.24948603411
152.98992205403349,-27.23961857163501,1430,Dakabin - Kallangur,24631,16.637,153.24938302460006,-27.458562168999936,8951,35322.12700481567
143.86201900139451,-37.59320674623163,581,Ballarat - South,24603,32.8541,143.94938302460005,-37.658562168999936,3378,10587.563963875358
151.1876314262341,-34.028763946711834,564,Cronulla - Kurnell - Bundeena,24583,25.0865,152.19938302460005,-34.35856216899994,5198,100178.41347372196
149.5589876064291,-33.39913246815952,57,Bathurst,24541,119.5048,149.64938302460007,-33.45856216899993,5679,10682.705763448153
150.7066364431518,-33.70043901011415,477,Castlereagh - Cranebrook,24472,71.5174,150.09938302460006,-33.158562168999936,5843,82469.19747133419
144.73754609784478,-37.886057726029044,971,Point Cook - North,24415,8.4906,144.69938302460005,-38.558562168999934,2891,74721.0284308379
144.99572119456806,-37.908295584724485,747,Brighton (Vic.),24297,8.2005,145.89938302460007,-37.95856216899993,3221,79640.92221450042
115.71007241677349,-31.652053333368873,1846,Butler - Merriwa - Ridgewood,24274,9.5699,115.44938302460005,-31.658562168999936,6543,24736.399202608423
144.54090934434586,-37.841477989902266,969,Wyndham Vale,24269,128.2408,144.09938302460006,-37.35856216899994,3541,66279.02279754651
150.89369888410224,-33.985218733026365,461,Macquarie Fields - Glenfield,24259,16.0182,150.24938302460006,-34.658562168999936,5029,95368.41469918744
144.54759124679944,-37.740151139196776,956,Melton South,24237,110.9612,143.79938302460008,-37.95856216899993,3214,70173.50003305946
152.941447355172,-27.381084836601755,1428,The Hills District,24231,31.6238,152.64938302460007,-27.458562168999936,8949,30130.10351501007
151.20137584154241,-33.892399692754324,345,Redfern - Chippendale,24207,2.1631,152.34938302460006,-34.058562168999934,5362,107680.85519199316
153.39318924854527,-28.07063152127371,1302,Robina,24187,14.9592,153.24938302460006,-28.058562168999934,8625,14200.148613346668
151.6677138521192,-30.50307740167612,188,Armidale,24114,274.5995,151.74938302460006,-30.458562168999936,7316,9265.399730386198
145.00392977359002,-37.662945751502846,798,Lalor,24114,12.0595,145.14938302460007,-37.058562168999934,3708,68301.58186935181
144.46805801659912,-38.24835606669116,627,Ocean Grove - Barwon Heads,24102,156.9794,144.39938302460007,-38.558562168999934,2890,34951.815514377675
151.17600978012973,-33.777861600175164,427,Lindfield - Roseville,24098,11.8766,151.14938302460007,-32.85856216899994,6010,101985.410724342
151.65999937253858,-32.94233801234277,211,Glendale - Cardiff - Hillsborough,24053,21.9175,152.04938302460005,-32.85856216899994,6013,37597.13045293613
150.76665336098847,-34.5224838482722,129,Dapto - Avondale,24045,56.6003,150.69938302460005,-34.95856216899993,4867,48765.513227007716
151.29807212845634,-33.529143754647485,39,Umina - Booker Bay - Patonga,24037,25.2284,150.84938302460006,-32.85856216899994,6009,85331.42354052218
115.93007606953637,-32.08609825028544,1883,Canning Vale - East,24022,9.9338,116.34938302460006,-32.25856216899994,6220,43929.5371000443
145.15687873974144,-37.71456649206397,789,Eltham,23951,19.4881,145.89938302460007,-37.35856216899994,3547,76602.32171267319
115.95495369335254,-32.06005872338017,1887,Thornlie,23925,11.591,115.44938302460005,-32.25856216899994,6217,52525.958176786626
115.91272931133194,-31.914329114875017,1792,Bayswater - Embleton - Bedford,23881,13.8115,116.34938302460006,-31.658562168999936,6546,50146.387452391114
145.34867968373098,-38.02519166424637,889,Berwick - North,23870,19.748,145.59938302460006,-38.558562168999934,2894,63135.60167025446
145.037983594342,-37.919524515728014,752,Bentleigh - McKinnon,23869,6.2242,146.04938302460005,-37.658562168999936,3385,93680.28721182824
145.13203103007285,-37.91597928878072,920,Clayton,23855,9.4112,146.04938302460005,-38.25856216899994,3059,89010.93026180292
150.95739698382587,-33.711910221818655,304,Kellyville,23834,10.641,150.54938302460005,-32.85856216899994,6008,101987.13116431149
144.3191710618929,-38.219841104098776,618,Grovedale,23763,55.7048,143.94938302460005,-38.25856216899994,3052,32658.87891046747
145.214388269846,-37.9559682486519,911,Dandenong North,23728,9.459,146.19938302460005,-37.95856216899993,3222,86568.08298077475
138.60010732626566,-34.85426082748011,1607,Enfield - Blair Athol,23676,15.1765,138.54938302460005,-34.658562168999936,4990,22200.44359198159
151.28836150237402,-33.802825269954496,438,Manly - Fairlight,23669,6.7351,152.34938302460006,-33.45856216899993,5688,105592.25231540397
150.98837300861643,-33.75997159731287,294,Baulkham Hills (East),23665,8.3081,149.79938302460008,-33.75856216899994,5516,110156.77547624714
145.4325081945725,-36.430437188827746,1023,Shepparton - South,23661,143.2741,145.44938302460005,-36.45856216899993,4035,3468.248217580795
150.89109634541336,-33.72412480926454,322,Quakers Hill,23593,7.7675,150.24938302460006,-32.85856216899994,6007,113083.47178643469
145.13946933471996,-38.1539618422308,976,Frankston,23451,11.6244,145.14938302460007,-38.85856216899994,2730,78217.45911234767
143.89951841210117,-37.52720488791203,580,Ballarat - North,23448,92.3577,143.79938302460008,-37.35856216899994,3540,20708.22536671302
150.87215760732022,-33.7653263668554,313,Doonside - Woodcroft,23426,9.9106,149.64938302460007,-34.058562168999934,5353,117669.45971486162
150.81293633364297,-33.76503379715262,327,Mount Druitt - Whalan,23382,8.6855,149.79938302460008,-34.35856216899994,5190,114409.67776696541
144.9273045871054,-37.70299305412914,825,Glenroy,23354,8.8582,144.54938302460005,-37.058562168999934,3706,78964.73823559628
145.06615861078393,-37.96111286781842,767,Cheltenham - Highett (East),23352,8.7377,145.89938302460007,-38.558562168999934,2895,98570.26681731213
151.19506837204904,-33.873164633267464,344,Pyrmont - Ultimo,23339,1.4913,152.04938302460005,-34.658562168999936,5035,117388.93687345489
149.71948426791081,-34.75062074651849,21,Goulburn,23320,64.7865,149.64938302460007,-34.658562168999936,5027,12063.866982212608
150.92107694048616,-33.663050103151285,310,Rouse Hill - Beaumont Hills,23302,36.6725,149.79938302460008,-33.158562168999936,5842,118394.7603817528
151.48357499708348,-32.68466707701798,116,Maitland - West,23179,175.4357,151.59938302460006,-32.558562168999934,6174,17711.292044738297
144.93673558712172,-37.62970253496525,836,Roxburgh Park - Somerton,23136,12.2902,145.44938302460005,-37.058562168999934,3709,77982.46984686618
146.66897672527685,-19.231219105313883,1516,Deeragun,23125,66.0566,146.64938302460007,-19.058562168999938,13493,19221.474330014204
151.0121998878661,-33.798910172988684,512,North Parramatta,23066,7.0608,150.99938302460006,-34.95856216899993,4868,128639.59494255752
151.2240367165232,-33.87032393506564,343,Potts Point - Woolloomooloo,22990,1.4591,152.49938302460006,-33.75856216899994,5525,118730.31674634395
153.00990351110934,-27.17832852930231,1415,Deception Bay,22984,31.878,152.94938302460005,-26.858562168999935,9276,35934.74826703772
145.32552369494263,-37.781344021624484,877,Mooroolbark,22960,12.5434,145.74938302460006,-37.058562168999934,3710,88557.1541838713
145.1579351179273,-37.94569340758305,915,Springvale,22953,11.1052,145.44938302460005,-38.85856216899994,2731,104478.44068075839
145.28631937390048,-37.856215704520565,851,Boronia,22936,11.2631,146.34938302460006,-37.658562168999936,3386,96215.43859443758
151.1449458158966,-33.936824974329866,391,Arncliffe - Bardwell Valley,22911,4.9926,151.29938302460008,-34.95856216899993,4869,114222.46560142706
138.48202767675485,-35.19851423054925,1659,Seaford (SA),22857,23.5763,138.54938302460005,-35.25856216899994,4664,9054.180033024302
145.16458366752565,-38.34572247909307,984,Hastings - Somers,22806,108.884,144.84938302460006,-38.85856216899994,2729,63203.510233352696
151.11913595242922,-33.778661872527245,525,Macquarie Park - Marsfield,22784,10.672,152.19938302460005,-33.158562168999936,5850,121710.82160178844
150.98827673560402,-33.90119363483415,367,Bass Hill - Georges Hall,22770,8.9161,149.94938302460005,-34.658562168999936,5028,127314.88300220013
144.28610197411234,-38.17785235020736,619,Highton,22714,40.587,144.09938302460006,-38.558562168999934,2889,45300.06651256745
151.10570659219383,-33.854233026866844,399,Concord - Mortlake - Cabarita,22706,6.3192,151.59938302460006,-34.95856216899993,4870,130636.91741336077
144.99565415614074,-37.83983818884703,714,South Yarra - East,22677,2.5172,144.24938302460006,-37.058562168999934,3705,108990.34683155116
152.93710155516916,-26.321039885017488,1487,Noosa Hinterland,22667,820.066,152.94938302460005,-26.258562168999937,9602,7029.486186402738
115.90975031371234,-31.88784305114171,1794,Morley,22648,10.5547,116.49938302460006,-31.958562168999936,6383,56313.00501431854
150.96741664651813,-33.79185134326612,516,Toongabbie - Constitution Hill,22602,7.4795,149.49938302460006,-33.75856216899994,5515,136033.83122003215
145.07395847916075,-37.83837087482098,726,Camberwell,22567,7.2919,146.19938302460005,-37.35856216899994,3548,112754.90362344572
151.27518289320832,-33.886874794444296,350,Bondi Beach - North Bondi,22559,2.4605,152.49938302460006,-34.35856216899994,5199,124467.35298782492
145.0660685917937,-37.87690356509119,774,Malvern East,22543,7.5668,144.54938302460005,-38.85856216899994,2728,117949.72010674694
145.10116394064684,-37.90838305248448,926,Oakleigh - Huntingdale,22537,10.1702,146.34938302460006,-38.25856216899994,3060,116205.62902033265
151.49474299900692,-33.25788313608337,47,Gorokan - Kanwal - Charmhaven,22489,11.249,151.29938302460008,-32.558562168999934,6173,79677.67262231323
145.15306270150907,-37.81650866416178,739,Blackburn,22480,8.6077,146.04938302460005,-37.058562168999934,3711,115621.56111877128
145.5986652664736,-38.516552306122954,670,Wonthaggi - Inverloch,22452,728.7626,145.74938302460006,-38.85856216899994,2732,40166.34084636993
151.36208618529724,-32.83184784580619,107,Cessnock,22426,68.9813,150.99938302460006,-32.558562168999934,6172,45555.6457998568
137.53652592911817,-33.041382964729166,1708,Whyalla,22424,40.8707,137.49938302460006,-33.158562168999936,5801,13449.951497745751
150.7486068784804,-33.527218102119555,308,Kurrajong Heights - Ebenezer,22420,331.85,149.94938302460005,-32.85856216899994,6006,105136.15027509746
153.06718723056204,-27.62828485523875,1114,Calamvale - Stretton,22418,19.736,152.79938302460008,-27.758562168999937,8786,30103.688133828095
151.46745868384454,-33.379366357085146,43,Bateau Bay - Killarney Vale,22412,10.8595,152.49938302460006,-33.158562168999936,5851,99215.27900695747
151.27832950927657,-33.77113420382461,448,Freshwater - Brookvale,22330,7.1838,152.64938302460007,-34.058562168999934,5363,130740.38001187086
151.16299693568777,-33.76066815206906,426,Gordon - Killara,22297,11.6714,150.69938302460005,-32.558562168999934,6171,140155.88503772134
138.6788630330513,-34.89851479888172,1587,Rostrevor - Magill,22241,9.9383,138.99938302460006,-34.95856216899993,4828,30034.157859083407
145.0229271815493,-37.87386876449898,754,Caulfield - North,22207,6.4189,143.64938302460007,-37.658562168999936,3377,123363.6831335274
150.59467366937633,-33.6903153225697,473,Springwood - Winmalee,22138,69.6647,149.49938302460006,-33.158562168999936,5841,117707.7555638408
144.9463507440566,-37.80127458552331,700,North Melbourne,22086,3.2492,144.99938302460006,-36.75856216899994,3870,115815.07380867969
151.16539355883825,-33.80129988574345,416,Chatswood (West) - Lane Cove North,22065,5.5372,152.64938302460007,-33.45856216899993,5689,142843.6927947051
145.17833920014255,-37.881500616572886,921,Glen Waverley - East,22027,9.1645,146.49938302460006,-37.95856216899993,3223,116474.33323374335
151.0501456036965,-33.811050548137366,501,Ermington - Rydalmere,22020,9.8654,150.39938302460007,-34.95856216899993,4866,140655.22844043706
150.88544697372598,-34.391905051866154,145,Balgownie - Fairy Meadow,22018,12.2638,150.09938302460006,-34.95856216899993,4865,95610.71811633937
150.85458636734776,-34.41935337511783,147,Figtree - Keiraville,21976,18.8129,150.84938302460006,-35.25856216899994,4705,93097.44872169
151.07054332168155,-34.009920605965874,570,Oyster Bay - Como - Jannali,21974,8.9053,151.89938302460007,-34.95856216899993,4871,129884.11328157654
145.12475920694777,-37.59609326894993,804,Doreen,21904,14.4616,145.29938302460008,-36.75856216899994,3871,94231.79856339992
151.00763813749145,-33.83796347641199,505,Granville - Clyde,21894,5.6083,149.49938302460006,-34.35856216899994,5189,150684.98117527168
147.33977147619623,-35.153633580394086,273,Wagga Wagga - South,21869,29.4358,147.24938302460006,-35.25856216899994,4693,14256.807374677888
145.12385099465214,-37.78488180240555,734,Doncaster,21864,8.7738,144.69938302460005,-36.75856216899994,3869,119960.7820754413
151.00176357876506,-33.85931630541039,507,Guildford - South Granville,21848,6.7962,152.34938302460006,-34.658562168999936,5036,152531.1738157518
150.67756731209664,-33.7863736061262,479,Glenmore Park - Regentville,21793,9.233,149.34938302460006,-34.058562168999934,5352,126474.63647190774
150.98230626280335,-33.54643408380346,305,Dural - Kenthurst - Wisemans Ferry,21705,377.5396,150.39938302460007,-32.558562168999934,6170,122337.94269060608
150.72496820728023,-34.0381386244427,453,Elderslie - Harrington Park,21700,21.5414,149.79938302460008,-34.95856216899993,4864,132856.00658238225
151.05164898546718,-33.93087024439857,380,Punchbowl,21693,5.2458,151.14938302460007,-35.25856216899994,4706,147551.9334150127
151.00136306839173,-34.02219797653935,569,Menai - Lucas Heights - Woronora,21692,33.4047,151.44938302460005,-35.25856216899994,4707,143168.62854180433
150.8431063246331,-33.78006943790672,329,Rooty Hill - Minchinbury,21661,14.6244,149.34938302460006,-33.45856216899993,5678,143126.1583207465
145.00754922288291,-37.68382052226017,801,Thomastown,21551,14.6852,145.59938302460006,-36.75856216899994,3872,115338.80524496737
150.93653747391835,-33.88448583326455,543,Canley Vale - Canley Heights,21546,5.4161,150.54938302460005,-35.25856216899994,4704,156509.19222166174
145.17583536042687,-38.09285375125115,975,Carrum Downs,21535,20.3079,146.19938302460005,-38.558562168999934,2896,103359.35656642827
150.97012752705135,-33.84530813220887,508,Guildford West - Merrylands West,21520,5.4654,150.09938302460006,-32.558562168999934,6169,164182.22709421106
151.1705935878129,-33.720836104597545,429,St Ives,21512,17.7776,152.34938302460006,-32.85856216899994,6014,145607.1224323287
150.77445365113772,-34.120380132149236,463,Rosemeadow - Glen Alpine,21512,48.0827,150.24938302460006,-35.25856216899994,4703,135115.59973374702
151.01973344241853,-33.902355039758156,374,Yagoona - Birrong,21505,5.5596,152.19938302460005,-34.95856216899993,4872,159634.94432481503
150.94404370246997,-33.9914600001128,554,Holsworthy - Wattle Grove,21504,73.7001,151.74938302460006,-35.25856216899994,4708,158778.747183463
151.06428209337335,-34.031901749906616,572,Sutherland - Kirrawee,21499,7.7547,152.64938302460007,-34.658562168999936,5037,161564.07383735257
144.90728895853147,-38.368976789152995,989,Rosebud - McCrae,21499,23.7957,144.24938302460006,-38.85856216899994,2727,78975.12647127162
151.12955877340403,-33.86137693106018,402,Five Dock - Abbotsford,21497,4.6202,152.79938302460008,-33.75856216899994,5526,155032.59269655
152.12566178853345,-32.736499877366484,120,Nelson Bay Peninsula,21447,47.4762,152.19938302460005,-32.558562168999934,6176,20909.3289336538
142.49569030235156,-38.34465571813254,1038,Warrnambool - North,21440,62.4201,142.44938302460005,-38.25856216899994,3047,10379.359134473729
145.11348716492282,-37.70032843985982,776,Greensborough,21392,10.0974,144.39938302460007,-36.75856216899994,3868,122227.61124179968
144.99794852411233,-37.852889202913666,713,Prahran - Windsor,21391,2.9054,143.64938302460007,-38.25856216899994,3051,126636.38717514579
144.69664589771565,-37.68728061660501,954,Hillside,21362,66.5481,143.94938302460005,-37.058562168999934,3704,96176.01462186022
145.08391379172875,-37.79194700597313,725,Balwyn North,21340,8.8491,146.49938302460006,-37.35856216899994,3549,133972.61782836905
151.2536804458725,-33.79779600808638,437,Balgowlah - Clontarf - Seaforth,21325,7.6104,151.89938302460007,-32.558562168999934,6175,150049.30059192397
150.78811970655252,-33.73197759666861,326,Lethbridge Park - Tregear,21322,11.2672,149.64938302460007,-32.85856216899994,6005,143640.17756946594
151.16180721711984,-33.894730977003064,337,Petersham - Stanmore,21314,3.0033,152.79938302460008,-34.35856216899994,5200,159585.43786633346
144.80239137958617,-37.737197738425316,934,St Albans - North,21270,6.5225,143.49938302460006,-37.95856216899993,3213,117287.91557807829
145.0425508199257,-37.856615539519844,773,Malvern - Glen Iris,21265,6.1552,143.79938302460008,-38.558562168999934,2888,133888.7466503222
150.83757940716833,-33.74349207082458,325,Hassall Grove - Plumpton,21243,6.2053,149.19938302460005,-33.75856216899994,5514,151797.37250078868
150.99400593371476,-33.790238132011375,514,Northmead,21222,5.9332,150.84938302460006,-32.25856216899994,6335,170399.51030761487
145.0160503870748,-37.74282263305947,787,Preston - East,21188,7.7457,145.89938302460007,-36.75856216899994,3873,134436.55907938644
115.78255419621861,-31.865458876626178,1836,Karrinyup - Gwelup - Carine,21186,14.0888,115.29938302460006,-31.958562168999936,6379,46852.8027675166
151.14148886183494,-33.95093116213941,397,Rockdale - Banksia,21180,3.576,152.04938302460005,-35.25856216899994,4709,167258.5355449534
151.06861678797208,-33.744368203532204,521,Pennant Hills - Cheltenham,21178,13.2937,151.14938302460007,-32.25856216899994,6336,164948.1657674068
145.24885663396154,-37.821590567003355,860,Ringwood East,21142,9.3929,146.64938302460007,-37.658562168999936,3387,124767.03688026057
153.30042928881835,-27.990154817365553,1289,Nerang - Mount Nathan,21041,61.4986,153.39938302460007,-27.758562168999937,8788,27450.93284638578
115.85173315495365,-31.856169761556416,1832,Balga - Mirrabooka,20996,9.4486,115.89938302460007,-31.35856216899994,6707,55357.0935739102
150.8540598695166,-34.55474999227045,144,Warilla,20992,9.4949,150.99938302460006,-35.558562168999934,4542,112146.64381270458
144.45454965820028,-37.63795037660048,953,Bacchus Marsh,20992,196.2984,143.49938302460006,-37.35856216899994,3539,89977.2293701845
150.80646925127027,-34.024446426214105,457,Claymore - Eagle Vale - Raby,20989,22.9168,149.34938302460006,-34.658562168999936,5026,151404.15408239004
145.12466617765497,-37.82920087124184,741,Box Hill,20973,7.012,146.34938302460006,-37.058562168999934,3712,138060.7456187424
144.7375047551829,-37.739056410414676,962,Caroline Springs,20971,6.9526,143.64938302460007,-37.058562168999934,3703,122420.3084554216
115.90909599238802,-32.009704365252055,1874,Bentley - Wilson - St James,20959,11.1482,115.89938302460007,-32.558562168999934,6055,60867.93687207418
152.93543524797582,-27.102469410554754,1408,Caboolture - South,20938,13.9768,152.64938302460007,-26.858562168999935,9275,39201.216750805994
151.04637134214715,-33.86296506578355,498,Lidcombe,20936,6.4037,152.94938302460005,-34.058562168999934,5364,177226.39491594993
145.18676423792388,-37.9076258267111,927,Wheelers Hill,20917,10.4394,146.04938302460005,-38.85856216899994,2733,129701.23605103255
145.29892463358232,-38.07748271561134,900,Cranbourne North,20916,10.2394,146.49938302460006,-38.558562168999934,2897,117784.91213401173
150.96458951362376,-33.74241740165648,295,Baulkham Hills (West) - Bella Vista,20888,10.9631,150.54938302460005,-32.25856216899994,6334,169071.55789934692
152.46675486506467,-31.909300471223904,171,Taree,20881,125.1186,152.49938302460006,-31.958562168999936,6503,6273.372285507707
145.08929333757158,-37.995901820821636,772,Mordialloc - Parkdale,20873,7.9681,144.99938302460006,-39.158562168999936,2566,129297.8543099339
145.27564877372117,-38.106743185578374,898,Cranbourne,20859,13.027,145.29938302460008,-39.158562168999936,2567,116775.81759355075
153.07601428119807,-26.797682461378887,1462,Caloundra - West,20842,71.6378,153.24938302460006,-26.858562168999935,9277,18507.210414717563
138.61890809733023,-34.95379646035556,1595,Unley - Parkside,20830,7.0726,138.84938302460006,-34.658562168999936,4991,38954.04331523675
151.18443997766755,-33.87929290156114,341,Glebe - Forest Lodge,20814,2.3018,152.79938302460008,-33.158562168999936,5852,169999.05507587292
115.99207435081897,-32.08501354635385,1884,Gosnells,20800,15.5131,116.19938302460007,-32.558562168999934,6056,56021.719112097235
150.95493287527705,-31.15550814578916,204,Tamworth - East,20788,102.1806,150.84938302460006,-31.058562168999934,6987,14728.019211129618
138.6407843140075,-34.87096085394093,1609,Windsor Gardens,20768,8.4298,138.24938302460006,-34.658562168999936,4989,42885.837033755015
144.66204901935586,-37.8852362090782,973,Werribee - East,20744,7.7569,143.34938302460006,-37.658562168999936,3376,118358.84547492444
150.85020261942256,-33.99027720105416,459,Ingleburn - Denham Court,20675,30.9189,149.19938302460005,-34.35856216899994,5188,157587.99661098162
144.96794348410972,-37.8005037745348,694,Carlton,20575,1.8185,144.09938302460006,-36.75856216899994,3867,138940.6398222508
150.59653366918997,-34.90620454295775,282,Nowra,20547,101.6798,149.94938302460005,-35.25856216899994,4702,70790.7966924878
145.17572750258782,-37.92561840728223,925,Mulgrave,20526,10.7189,145.59938302460006,-39.158562168999936,2568,141757.32899545922
138.51940147637276,-34.98345685160749,1629,Glenelg (SA),20477,7.2232,138.09938302460006,-34.95856216899993,4825,38456.8604929819
144.9678340083823,-37.82661844772186,703,Southbank,20470,3.0743,143.94938302460005,-38.85856216899994,2726,145078.84159842393
152.95042937936694,-26.633101049464354,1486,Nambour,20430,54.0249,153.09938302460006,-26.558562168999938,9439,16980.667292939142
150.84479750753957,-34.02805777884236,462,Minto - St Andrews,20388,12.4133,149.49938302460006,-34.95856216899993,4863,161009.95716928758
150.7846743415292,-33.79734345985614,489,St Clair,20377,7.2035,149.04938302460005,-34.058562168999934,5351,163047.98098150748
144.6853375341998,-37.87325822555402,964,Hoppers Crossing - South,20366,7.0114,143.34938302460006,-38.25856216899994,3050,124794.68826479085
151.0834713320683,-33.8094467820099,527,West Ryde - Meadowbank,20337,4.7923,151.44938302460005,-32.25856216899994,6337,175357.13971348974
152.37935414150166,-27.64354198159422,1322,Lockyer Valley - East,20326,741.5888,152.49938302460006,-27.758562168999937,8785,17395.47899539109
149.125908264071,-33.249405303987,77,Orange - North,20298,99.5118,149.19938302460005,-33.158562168999936,5840,12183.418666014177
151.22193015281286,-33.825838364559026,432,Cremorne - Cammeray,20281,3.2391,152.94938302460005,-33.45856216899993,5690,165355.40999382033
151.65617850194823,-32.9032891036276,235,Wallsend - Elermore Vale,20280,21.5199,151.74938302460006,-32.25856216899994,6338,72028.72309265147
150.9035666781311,-34.3405788580577,150,Woonona - Bulli - Russell Vale,20271,15.7847,150.69938302460005,-35.558562168999934,4541,136398.61115839207
144.74895416879977,-37.71454465452392,959,Taylors Hill,20267,5.9679,143.79938302460008,-36.75856216899994,3866,135483.08182994858
145.1560690957176,-37.881678583708066,922,Glen Waverley - West,20245,7.6758,146.79938302460008,-37.95856216899993,3224,144748.10965691443
153.23018557195687,-27.76799731293144,1296,Ormeau - Yatala,20245,72.1503,153.69938302460005,-27.758562168999937,8789,46264.746478776826
115.75892060143858,-32.42115678749871,1938,Singleton - Golden Bay - Secret Harbour,20209,14.5708,115.59938302460006,-32.558562168999934,6054,21377.894099561923
150.74004719748882,-33.765920402342694,481,Kingswood - Werrington,20157,14.0229,149.79938302460008,-32.558562168999934,6168,160088.43789084244
144.78446122089815,-37.88090211988565,942,Altona Meadows,20141,10.5398,143.49938302460006,-38.558562168999934,2887,135359.01555163256
115.93129226205447,-32.14693903018213,1863,Forrestdale - Harrisdale - Piara Waters,20111,44.2024,116.64938302460006,-32.25856216899994,6221,68829.04485600576
151.264891137861,-33.89991781497719,349,Bondi - Tamarama - Bronte,20097,2.4963,152.49938302460006,-34.95856216899993,4873,163296.1878329298
138.6719065510935,-34.87756683065006,1586,Paradise - Newton,20041,9.2257,138.84938302460006,-35.25856216899994,4665,45260.84828054411
144.70134995492427,-37.86232334310599,963,Hoppers Crossing - North,20034,10.9136,143.19938302460005,-37.95856216899993,3212,132516.50795445763
152.8501720539391,-27.651097908930968,1344,Redbank Plains,20011,19.3743,152.64938302460007,-28.058562168999934,8623,49292.80009723437
151.0882344340997,-33.91349669187395,377,Belmore - Belfield,19984,4.5135,151.29938302460008,-35.558562168999934,4543,183511.03899128942
144.24251546861527,-36.8063061475279,599,Kangaroo Flat - Golden Square,19956,40.9147,144.24938302460006,-36.45856216899993,4031,38592.99768669956
153.03706740234057,-30.37611290682302,88,Sawtell - Boambee,19947,118.2251,152.94938302460005,-30.458562168999936,7320,12430.474206582214
145.1580378157251,-38.13358958197324,977,Frankston North,19947,13.2383,144.69938302460005,-39.158562168999936,2565,120580.55534631577
138.7617243040785,-34.61049948816594,1597,Gawler - South,19915,76.7139,138.69938302460005,-34.35856216899994,5153,28527.297892248207
151.13962702655306,-33.71045881995216,430,Turramurra,19860,20.6426,152.64938302460007,-32.85856216899994,6015,169426.3402413586
153.449880602179,-28.216690542550335,256,Tweed Heads,19837,100.2868,153.39938302460007,-28.35856216899994,8462,16483.941162860527
150.92971248573159,-33.868095877712065,546,Fairfield - West,19791,4.6915,149.04938302460005,-33.45856216899993,5677,180216.90760224787
144.30183594114328,-38.126544602927694,617,Geelong West - Hamlyn Heights,19788,32.0374,143.64938302460007,-38.85856216899994,2725,99210.09466233618
146.04854630046714,-34.28118764685347,260,Griffith (NSW),19748,56.333,145.89938302460007,-34.35856216899994,5177,16190.99627112405
145.1726764192396,-37.97372992965413,918,Noble Park - West,19712,4.7945,146.34938302460006,-38.85856216899994,2734,142153.55025467437
115.96088717688123,-32.10040954047671,1885,Huntingdale - Southern River,19710,18.009,116.49938302460006,-32.558562168999934,6057,71775.70144122536
153.07780607743535,-26.65441827044916,1469,Maroochydore - Kuluin,19692,13.8495,152.79938302460008,-26.558562168999938,9438,29695.14440632404
144.81816809680737,-37.802006307958436,938,Sunshine West,19657,12.9688,144.84938302460006,-36.45856216899993,4033,149116.51839534222
150.87214909552932,-33.866054602553994,540,Bossley Park - Abbotsbury,19650,9.5146,149.34938302460006,-32.85856216899994,6004,180472.70406556668
144.593684844845,-37.6215267133448,955,Melton,19614,130.7052,143.19938302460005,-37.35856216899994,3538,126717.94912433409
151.06183252789012,-33.83825520823695,492,Homebush Bay - Silverwater,19594,11.2619,153.09938302460006,-33.75856216899994,5527,188892.48958902986
115.80556384842576,-31.985150479324204,1782,Nedlands - Dalkeith - Crawley,19588,9.7499,115.14938302460006,-32.25856216899994,6216,68947.30960980913
115.90072630335703,-31.825860128457727,1803,Ballajura,19540,23.8166,116.19938302460007,-31.35856216899994,6708,59058.57011907103
115.96805925125147,-32.028651084180154,1882,Beckenham - Kenwick - Langford,19538,18.9584,116.64938302460006,-31.658562168999936,6547,76439.48293317082
145.00605780626313,-37.75820546261221,689,Thornbury,19522,4.9972,145.14938302460007,-36.45856216899993,4034,144790.82188542507
152.9207616556695,-27.298097324491874,1425,Cashmere,19502,45.2329,152.49938302460006,-27.158562168999936,9111,44511.562429827856
150.82207036741949,-34.126817555892174,455,Bradbury - Wedderburn,19484,36.6555,150.39938302460007,-35.558562168999934,4540,163465.4397985026
115.99081998008491,-32.163438423066,1860,Armadale - Wungong - Brookdale,19478,25.3933,116.04938302460006,-32.85856216899994,5893,77279.02195776926
151.0461486911063,-33.72199900085038,303,Cherrybrook,19474,8.2514,150.24938302460006,-32.25856216899994,6333,178562.81877043503
115.69792084312249,-31.66765356505613,1852,Mindarie - Quinns Rocks - Jindalee,19462,12.6805,115.59938302460006,-31.35856216899994,6706,35525.2278561107
149.11245008345037,-33.3012406750706,76,Orange,19457,45.2499,148.89938302460007,-33.158562168999936,5839,25393.536811248807
145.38869251736364,-37.71372466251338,874,Lilydale - Coldstream,19420,109.3818,146.19938302460005,-36.75856216899994,3874,128107.43339284665
116.00435470028822,-31.989798830023467,1888,Forrestfield - Wattle Grove,19408,26.8976,116.79938302460006,-31.958562168999936,6384,75227.84597407706
144.86297672214997,-37.7845356416045,947,Braybrook,19384,7.4842,144.54938302460005,-36.45856216899993,4032,149767.34358700833
150.62074377117702,-33.742282948044924,469,Blaxland - Warrimoo - Lapstone,19373,29.6935,148.89938302460007,-33.75856216899994,5513,159504.98323915186
145.4775956330502,-38.045357975594634,887,Pakenham - North,19341,37.2213,146.79938302460008,-38.558562168999934,2898,128891.96466876208
150.95311859553266,-33.92735435924751,553,Chipping Norton - Moorebank,19319,14.4902,149.64938302460007,-35.25856216899994,4701,190026.5610433759
145.03076656004126,-38.275388106452425,987,Mount Martha,19317,30.2094,144.39938302460007,-39.158562168999936,2564,112369.42566048799
145.10147405690697,-37.87226747646909,919,Ashwood - Chadstone,19310,6.7087,145.89938302460007,-39.158562168999936,2569,158837.25101875552
151.34766029020386,-33.425146333942664,31,Gosford - Springfield,19284,16.9124,152.49938302460006,-32.558562168999934,6177,144301.46267664965
151.14833215731682,-33.85553358967571,401,Drummoyne - Rodd Point,19276,3.7047,152.94938302460005,-34.658562168999936,5038,188288.9934162183
145.127120221787,-37.88724450064704,924,Mount Waverley - South,19256,8.7006,146.79938302460008,-37.35856216899994,3550,158863.28802563698
138.68493636357385,-34.80966110431747,1625,Modbury Heights,19253,9.9089,139.14938302460007,-34.658562168999936,4992,45719.96376602273
152.92369313527564,-27.185541310630065,1417,Narangba,19204,37.7088,153.39938302460007,-27.158562168999936,9114,47238.49350738676
138.67200495946724,-34.92589878747651,1582,Burnside - Wattle Park,19201,11.305,138.24938302460006,-35.25856216899994,4663,53358.95266099659
151.08190955504926,-33.7189855166351,422,Normanhurst - Thornleigh - Westleigh,19141,9.9882,152.04938302460005,-32.25856216899994,6339,185491.9101035589
153.05213649031296,-27.59589654137586,1121,Sunnybank Hills,19133,6.4409,153.54938302460005,-27.458562168999936,8952,51426.31631714335
151.19980095842402,-33.83156187672159,433,Crows Nest - Waverton,19125,2.9612,153.09938302460006,-34.35856216899994,5201,184788.08146461943
145.05612503859217,-37.89347071201126,753,Carnegie,19104,3.8043,144.09938302460006,-39.158562168999936,2563,163341.61316859143
145.08814374944046,-37.731322259096736,782,Viewbank - Yallambie,19090,10.2379,145.74938302460006,-36.45856216899993,4036,152989.61807832087
152.93546405374684,-29.67727392812595,79,Grafton,19075,106.2537,152.79938302460008,-29.558562168999934,7808,18624.067574546283
144.280671386472,-38.320233966384954,630,Torquay,19066,126.3198,143.19938302460005,-38.558562168999934,2886,98042.2759534846
150.99825457169484,-33.88203722744077,503,Chester Hill - Sefton,19060,7.2676,151.59938302460006,-35.558562168999934,4544,193957.81280225536
151.21741908782127,-33.83957266474899,435,Neutral Bay - Kirribilli,19052,2.2106,152.34938302460006,-35.25856216899994,4710,188602.12642725484
115.69713918755905,-32.54733473298863,1771,Halls Head - Erskine,19045,14.2469,115.74938302460006,-32.85856216899994,5892,34859.26895174764
145.12956099046863,-38.17648265660247,978,Frankston South,19035,14.5602,145.14938302460007,-39.45856216899993,2404,142332.68082373
138.5641928702489,-34.8563131155471,1674,The Parks,19028,18.2633,138.39938302460007,-34.35856216899994,5152,57247.06871711365
153.39793049649478,-27.946106929901404,1279,Labrador,19021,4.9957,153.84938302460006,-28.058562168999934,8627,46121.422924710445
145.40123129809666,-36.34273498560749,1022,Shepparton - North,19014,65.6581,145.29938302460008,-36.158562168999936,4197,22392.41348598226
139.51031970737006,-20.725922442903684,1447,Mount Isa,18999,62.8098,139.44938302460005,-20.858562168999935,12491,15996.07430641465
145.93966677117226,-38.214044934702635,656,Warragul,18985,352.1791,146.94938302460005,-38.25856216899994,3062,88541.48324461971
150.81808151664504,-33.7406621730001,323,Bidwill - Hebersham - Emerton,18970,6.095,149.49938302460006,-32.558562168999934,6167,179783.58417560597
153.32301303324212,-27.94720855560477,1290,Pacific Pines - Gaven,18909,16.4182,153.09938302460006,-28.35856216899994,8461,50600.91199126992
151.12115379813199,-33.659766353666235,420,Asquith - Mount Colah,18895,34.6849,150.99938302460006,-31.958562168999936,6498,189001.43875679938
146.3094731792501,-36.358843303393314,643,Wangaratta,18891,57.5835,146.34938302460006,-36.45856216899993,4038,11629.774017822905
153.35073251725925,-28.121089690797923,1285,Mudgeeraba - Bonogin,18872,66.6425,153.69938302460005,-28.35856216899994,8463,43167.690343264745
152.62172533361667,-26.244912738013035,1557,Gympie Region,18866,2544.6625,152.64938302460007,-26.258562168999937,9601,3149.8802970093084
151.10346493324212,-34.035542603782424,560,Miranda - Yowie Bay,18857,5.9968,151.89938302460007,-35.558562168999934,4545,183982.9600462607
150.8808227079512,-30.88317276699772,207,Tamworth Region,18839,8980.4841,150.99938302460006,-30.758562168999937,7150,17875.576943419976
115.94578993238322,-32.01040740046997,1877,Cannington - Queens Park,18826,9.5147,115.14938302460006,-31.658562168999936,6542,84887.50773751
115.82174049781459,-31.93287600662998,1790,Wembley - West Leederville - Glendalough,18801,6.5603,114.99938302460006,-31.958562168999936,6378,77807.39932939102
145.09283384836357,-38.19500886850276,986,Mount Eliza,18798,23.2077,144.84938302460006,-39.45856216899993,2403,141850.04280889189
145.06741612983046,-37.65942496467512,799,Mill Park - North,18775,8.1362,146.64938302460007,-37.058562168999934,3713,155206.27995454994
145.26863522562363,-37.77298991997645,858,Croydon Hills - Warranwood,18763,9.492,146.94938302460005,-37.658562168999936,3388,148738.92191792344
115.88787285977139,-32.052526704123565,1881,Willetton,18763,8.743,115.29938302460006,-32.558562168999934,6053,78870.24884557801
115.95153754128641,-31.837024161464697,1804,Beechboro,18733,47.1105,116.49938302460006,-31.35856216899994,6709,74280.31436916122
145.01430567214533,-37.93768041571698,750,Hampton,18732,5.6846,146.19938302460005,-39.158562168999936,2570,170406.9532244679
145.16402930359533,-38.24111168082117,990,Somerville,18691,117.354,145.44938302460005,-39.45856216899993,2405,137399.96712459173
145.56176687208963,-37.953240924429664,885,Emerald - Cockatoo,18686,371.6241,147.09938302460006,-37.95856216899993,3225,135138.37195000215
151.12061803558262,-33.7163976531221,431,Wahroonga (East) - Warrawee,18651,13.327,153.09938302460006,-33.158562168999936,5853,194128.30325766158
152.96291810641816,-27.591719332074927,1316,Inala - Richlands,18637,10.8744,152.34938302460006,-27.458562168999936,8948,62382.578970856455
115.8430748901881,-31.87531872643055,1837,Nollamara - Westminster,18618,6.039,115.29938302460006,-31.35856216899994,6705,77098.40605511292
145.22111065508048,-37.87360844299087,850,Wantirna South,18610,13.3559,146.64938302460007,-38.85856216899994,2735,165932.2223316984
150.92555913350276,-33.85343878630118,549,Smithfield - Wetherill Park,18608,6.6123,149.04938302460005,-34.658562168999936,5025,194521.05504486588
150.80822166794513,-34.064717356213265,456,Campbelltown - Woodbine,18604,13.7476,149.19938302460005,-34.95856216899993,4862,177923.4558085739
151.05226643650167,-33.9709028162685,388,Peakhurst - Lugarno,18571,7.4308,152.79938302460008,-34.95856216899993,4874,194345.08075001923
150.7374231180626,-23.1547617455406,1252,Yeppoon,18561,78.5555,150.84938302460006,-23.258562168999937,11225,16232.338329013917
144.37797158048866,-37.94778185704675,620,Lara,18552,588.6014,143.04938302460005,-37.658562168999936,3375,121330.92087564841
144.78623013784699,-37.688635563805384,940,Taylors Lakes,18531,18.4632,143.34938302460006,-37.058562168999934,3702,145214.35873833747
152.67217229229357,-25.50560702476106,1567,Maryborough (Qld),18522,84.2739,152.64938302460007,-25.658562168999936,9927,17097.583107764185
150.72885167282297,-33.98314232762036,532,Cobbitty - Leppington,18505,132.1375,148.89938302460007,-34.35856216899994,5187,173742.91296666072
150.88902058183663,-33.748382504993394,312,Blacktown (North) - Marayong,18503,7.3829,149.94938302460005,-32.25856216899994,6332,187103.48565869863
144.88268224612983,-37.83757763169387,944,Newport,18484,8.8407,143.04938302460005,-38.25856216899994,3049,167567.35172885223
153.1357271103116,-26.988873682768524,1405,Bribie Island,18465,145.3505,153.54938302460005,-26.858562168999935,9278,43549.16637956656
145.02536800749183,-37.89137537326332,755,Caulfield - South,18456,4.7426,143.79938302460008,-39.158562168999936,2562,176676.794745065
151.03964398340443,-33.794370827123316,502,Oatlands - Dundas Valley,18448,6.0763,151.29938302460008,-31.958562168999936,6499,205032.2210067789
138.70989445616834,-34.68603261381289,1599,Craigmore - Blakeview,18443,11.8807,138.99938302460006,-34.35856216899994,5154,45011.73343014122
144.8909516255085,-37.67627371837993,832,Gladstone Park - Westmeadows,18416,13.9361,143.94938302460005,-36.45856216899993,4030,158975.68991194488
152.78391944372487,-27.611987232764747,1329,Ipswich - East,18416,11.4813,152.19938302460005,-27.758562168999937,8784,59907.56545871178
142.15592649630645,-34.18080408088549,1004,Mildura - North,18402,25.1167,142.14938302460007,-34.058562168999934,5328,13572.509821268615
115.77267248508089,-32.481624728300545,1774,Mandurah - North,18386,31.8412,115.44938302460005,-32.85856216899994,5891,51641.64339184102
150.9516593357524,-33.871317308896806,545,Fairfield,18363,4.2304,150.09938302460006,-35.558562168999934,4539,202796.20337407975
145.12263604510312,-37.804693898317794,742,Box Hill North,18359,6.2087,146.49938302460006,-36.75856216899994,3875,168479.78486918908
144.80754702283372,-37.75337195143191,935,St Albans - South,18352,6.2647,143.49938302460006,-36.75856216899994,3865,160176.02545440654
151.67840774661968,-33.01878246693187,208,Belmont - Bennetts Green,18274,22.2119,152.34938302460006,-32.25856216899994,6340,105218.8374159667
144.54265330354815,-37.66487745728026,957,Melton West,18266,24.2021,142.89938302460007,-37.95856216899993,3211,148329.75759606087
150.8665094197252,-33.94840594479042,557,Prestons - Edmondson Park,18255,14.1323,148.74938302460006,-34.058562168999934,5350,195966.7847205681
153.20292975836884,-27.542989249264448,1045,Capalaba,18198,18.889,153.84938302460006,-27.458562168999936,8953,64560.14138514058
115.8821317809443,-32.14411516915586,1898,Banjup,18177,29.7061,116.34938302460006,-32.85856216899994,5894,90580.60270838188
153.0314260313071,-27.27038143544229,1431,Murrumba Downs - Griffin,18136,22.5196,153.69938302460005,-27.158562168999936,9115,67323.44129350994
139.25788063250818,-35.12646042617753,1738,Murray Bridge,18120,97.5456,139.14938302460007,-35.25856216899994,4666,17675.584825658025
138.5663897180194,-34.897814668736,1665,Hindmarsh - Brompton,18102,7.8961,137.94938302460005,-34.658562168999936,4988,62404.074568790784
138.58940882733825,-34.95580595090467,1594,Goodwood - Millswood,18086,7.1977,139.29938302460008,-34.95856216899993,4829,64848.87619203518
151.02483035831688,-33.85241589326508,494,Auburn - Central,18070,3.7326,153.24938302460006,-34.058562168999934,5365,206892.1613401785
151.4610856595636,-32.80070827346894,110,Kurri Kurri - Abermain,18057,90.6145,151.59938302460006,-31.958562168999936,6500,94286.76841209087
151.07656132580783,-33.91903728867406,382,Lakemba,18056,2.1866,152.64938302460007,-35.25856216899994,4711,207121.1741310641
141.47931203058573,-31.944020724820007,96,Broken Hill,18027,170.1153,141.39938302460007,-31.958562168999936,6466,7727.075416471329
151.08494838703928,-34.04612443710696,559,Gymea - Grays Point,17986,5.7978,152.19938302460005,-35.558562168999934,4546,196337.77797879413
115.7126576720786,-33.2576622770308,1750,Australind - Leschenault,17956,67.3083,115.59938302460006,-33.158562168999936,5728,15242.481915762835
138.666441009672,-34.68741834081,1600,Davoren Park,17948,9.4648,138.09938302460006,-34.35856216899994,5151,63573.477816941886
138.53851606508985,-34.86877703219059,1669,Woodville - Cheltenham,17943,8.8122,137.79938302460008,-34.95856216899993,4824,68277.52762586049
151.25095492020003,-33.897105170484004,351,Bondi Junction - Waverly,17924,2.5234,153.24938302460006,-33.45856216899993,5691,191597.57874172617
145.23349414010016,-37.811265142935255,859,Ringwood,17916,9.9105,146.04938302460005,-36.45856216899993,4037,166705.60731108033
153.10439249326802,-30.282209146581362,83,Coffs Harbour - North,17902,25.6688,153.09938302460006,-30.158562168999936,7483,13714.816763969628
150.8456840094945,-33.692057581058585,320,Riverstone - Marsden Park,17893,79.421,149.04938302460005,-32.85856216899994,6003,191180.30926141722
151.24367535429948,-33.90815012829504,365,Randwick - North,17880,1.9356,152.94938302460005,-32.85856216899994,6016,196822.5185070105
138.6389617769809,-34.77106165358342,1616,Salisbury,17866,10.7696,139.44938302460005,-34.658562168999936,4993,75281.63542493447
151.1025658089562,-33.894573389233095,409,Croydon Park - Enfield,17862,3.9711,153.39938302460007,-33.75856216899994,5528,213158.5299152757
138.72558344727406,-35.034878998781615,1575,Aldgate - Stirling,17853,117.2141,138.69938302460005,-35.558562168999934,4501,58147.24280195016
151.2119628020634,-33.885431688467726,346,Surry Hills,17844,1.3164,153.24938302460006,-34.658562168999936,5039,206294.42753927666
153.40516579949124,-27.983807498130233,1308,Southport - South,17833,6.6527,153.99938302460006,-27.758562168999937,8790,63619.898538827765
150.90761892991156,-33.8993184496869,542,Cabramatta West - Mount Pritchard,17810,5.3429,148.74938302460006,-33.45856216899993,5676,206021.0648224978
138.6764992045148,-34.77165703814739,1617,Salisbury East,17771,14.8505,139.29938302460008,-34.35856216899994,5155,73262.60197525476
150.88755117414703,-33.91493676678736,530,Ashcroft - Busby - Miller,17751,5.463,149.34938302460006,-35.25856216899994,4700,205251.58271813535
144.79701397214416,-38.37880296136013,988,Point Nepean,17726,67.1875,144.54938302460005,-39.45856216899993,2402,121773.6996170872
150.68917759295076,-33.7710109468754,480,Jamisontown - South Penrith,17684,9.0181,149.19938302460005,-32.558562168999934,6166,193369.0354827627
138.62537945558273,-34.72650493272729,1618,Salisbury North,17656,31.3003,138.54938302460005,-34.058562168999934,5316,74420.46351622001
138.86358352295292,-35.06917168418655,1578,Mount Barker,17654,54.1038,138.99938302460006,-35.558562168999934,4502,55680.86654195749
145.29207962579312,-38.05015695517413,907,Narre Warren South (West),17648,6.777,145.74938302460006,-39.45856216899993,2406,161317.8056967151
151.14096925338296,-33.901967706395276,410,Dulwich Hill - Lewisham,17636,2.7016,153.39938302460007,-34.35856216899994,5202,214393.53252491183
144.99813465792317,-37.86703802874362,711,St Kilda East,17625,2.4135,143.34938302460006,-38.85856216899994,2724,181319.39334519746
153.06478555256854,-27.216249610506733,1422,Rothwell - Kippa-Ring,17622,15.3908,153.39938302460007,-26.558562168999938,9440,80093.74126822269
145.14859108710112,-37.75399615491912,735,Templestowe,17620,16.1176,146.94938302460005,-37.058562168999934,3714,177134.17655795164
151.25130194610517,-33.7737070750503,449,Manly Vale - Allambie Heights,17601,9.3541,152.79938302460008,-32.558562168999934,6178,197514.62162624323
150.91146950966137,-33.75685265531115,311,Blacktown (East) - Kings Park,17600,7.9753,150.69938302460005,-31.958562168999936,6497,200410.7109066003
152.86044528618822,-31.438015860478206,166,Port Macquarie - West,17577,54.1669,153.09938302460006,-31.35856216899994,6831,24372.56268889238
150.87819634726088,-34.428744992560006,152,Wollongong - West,17574,5.6592,150.84938302460006,-35.85856216899994,4379,158644.24543325612
144.89730278625254,-37.79822224801603,948,Footscray,17536,4.967,144.99938302460006,-36.158562168999936,4196,182185.82254417363
153.03420307397445,-27.32013431673812,1082,Bracken Ridge,17516,8.1103,152.19938302460005,-27.158562168999936,9110,84601.84107468535
150.8320122176817,-34.602022795252836,142,Shellharbour - Flinders,17487,49.5814,150.54938302460005,-35.85856216899994,4378,141755.549240927
153.33756344751163,-27.900851249517203,1293,Helensvale,17476,20.1329,152.79938302460008,-28.35856216899994,8460,73268.9506903413
151.1731780666782,-27.033231760267366,1224,Wambo,17454,5700.3325,151.29938302460008,-27.158562168999936,9107,18694.58577252586
149.3910801923301,-35.44412532194385,4,Queanbeyan Region,17435,3054.4099,149.49938302460006,-35.558562168999934,4537,16054.725766490072
153.55537295107302,-28.846990747457344,238,Ballina,17435,36.1299,153.69938302460005,-28.958562168999936,8137,18713.143340804865
151.01336674119773,-34.05490563592073,573,Engadine,17434,8.9538,149.79938302460008,-35.558562168999934,4538,200404.8166312839
115.86962355331336,-31.981045612117107,1897,South Perth - Kensington,17410,7.7565,114.84938302460006,-32.25856216899994,6215,101080.64203358804
145.01713426064097,-37.960892367107036,751,Sandringham - Black Rock,17396,6.4301,144.24938302460006,-39.45856216899993,2401,179160.61986600992
148.62856726808297,-32.26714857779474,100,Dubbo - South,17380,25.4336,148.74938302460006,-32.25856216899994,6328,11423.694452188207
144.9350057531594,-37.837880761929306,707,Port Melbourne,17370,2.7894,142.89938302460007,-37.35856216899994,3537,187472.68550015063
115.90959098398876,-31.98516637294964,1869,East Victoria Park - Carlisle,17352,6.2709,116.94938302460005,-32.25856216899994,6222,102701.81488470695
151.19162349876677,-33.908592083583464,340,Erskineville - Alexandria,17340,4.32,153.09938302460006,-34.95856216899993,4875,210501.50159997135
115.78910421003917,-31.894412063153727,1835,Innaloo - Doubleview,17310,5.6082,115.74938302460006,-31.058562168999934,6870,92749.54260587931
115.81352789664196,-31.95232614976542,1789,Subiaco - Shenton Park,17305,7.7961,114.84938302460006,-31.658562168999936,6541,96935.64217865824
144.83534137593912,-37.62368122066872,833,Greenvale - Bulla,17297,95.9064,144.69938302460005,-36.158562168999936,4195,163038.12124030053
138.61081470748283,-34.78258725943926,1614,Parafield Gardens,17285,7.0272,137.94938302460005,-35.25856216899994,4662,80202.16137805131
145.08172270799113,-37.59206719669466,808,Mernda,17268,23.8231,145.59938302460006,-36.158562168999936,4198,165637.81767915338
115.87676306393118,-31.9248196487776,1786,Mount Lawley - Inglewood,17244,7.0812,116.04938302460006,-31.058562168999934,6871,97434.58558887141
145.0841891627146,-37.82453514622452,732,Surrey Hills (West) - Canterbury,17219,5.7026,147.09938302460006,-37.35856216899994,3551,185340.07650875236
152.94116857829388,-27.445846424417805,1144,The Gap,17204,12.2584,152.34938302460006,-26.858562168999935,9274,87607.9094364103
145.07196069459897,-37.85471795224252,727,Glen Iris - East,17190,5.7049,146.49938302460006,-39.158562168999936,2571,190912.95051587425
115.78392935564214,-31.684030968545876,1847,Carramar,17180,30.0077,115.44938302460005,-31.058562168999934,6869,76300.88715816836
150.54396167216225,-34.19346073343195,466,Picton - Tahmoor - Buxton,17149,189.9084,148.74938302460006,-34.658562168999936,5024,172841.5163661799
145.13835415508038,-38.10479839089889,980,Seaford (Vic.),17138,12.4321,146.04938302460005,-39.45856216899993,2407,169852.33651685857
153.47192620354028,-28.860078827997796,239,Ballina Region,17130,406.5487,153.39938302460007,-28.958562168999936,8136,13007.14354849167
138.60395996359335,-34.757928616313606,1615,Paralowie,17130,8.3213,138.84938302460006,-34.058562168999934,5317,80792.5313492728
151.07490605453395,-33.86284868038538,412,Homebush,17086,3.8434,150.39938302460007,-31.958562168999936,6496,220432.55808352018
153.04331133214086,-26.676184161276105,1455,Buderim - North,17077,24.1124,153.24938302460006,-26.258562168999937,9603,50625.99093229571
151.03127360728814,-33.91340686042748,375,Bankstown - North,17057,2.7406,151.14938302460007,-35.85856216899994,4380,216054.2325127253
151.13661747799142,-33.751468619357915,428,Pymble,17056,10.2514,151.89938302460007,-31.958562168999936,6501,211257.7016812835
144.91853478731875,-37.604381677339894,840,Craigieburn - South,17051,11.9148,144.39938302460007,-36.158562168999936,4194,166986.61669568767
151.0322344705653,-33.957842606066265,371,Padstow,17012,6.5091,151.44938302460005,-35.85856216899994,4381,214273.8047530524
144.9516577473785,-37.66373395805828,831,Campbellfield - Coolaroo,17011,18.1867,143.64938302460007,-36.45856216899993,4029,176924.62915414645
151.7045723984899,-32.92408620708945,227,Lambton - New Lambton,17006,10.5485,152.64938302460007,-32.25856216899994,6341,115389.3158600006
147.4009978475058,-35.14989321788297,271,Wagga Wagga - East,16994,54.0429,147.54938302460005,-35.25856216899994,4694,18108.836009833492
152.6932412641608,-31.61860353652975,164,Laurieton - Bonny Hills,16934,524.9065,152.64938302460007,-31.658562168999936,6667,6077.775453304697
150.86079435712173,-34.05405562835863,460,Leumeah - Minto Heights,16934,23.6461,148.89938302460007,-34.95856216899993,4861,206181.22462591788
138.56616268808904,-34.927794471686774,1680,Richmond (SA),16911,8.9253,138.39938302460007,-35.558562168999934,4500,71605.48779623506
115.80642469047811,-32.03366473112943,1928,Melville,16902,7.8838,114.99938302460006,-32.558562168999934,6052,95739.76932904722
153.05021463912462,-26.70591501343137,1456,Buderim - South,16890,30.1384,152.49938302460006,-26.558562168999938,9437,57228.891459967286
152.42850914262,-24.85044370845948,1536,Bargara - Burnett Heads,16883,144.5297,152.49938302460006,-24.758562168999937,10415,12446.974060844632
153.22919230081132,-27.53243268162396,1042,Alexandra Hills,16882,13.6312,153.99938302460006,-27.158562168999936,9116,86743.14512620846
145.19912159439676,-37.81825284028132,866,Mitcham (Vic.),16867,6.6271,147.24938302460006,-37.658562168999936,3389,181587.43726266807
151.13715432177085,-33.99217192409759,398,Sans Souci - Ramsgate,16852,4.6115,152.49938302460006,-35.558562168999934,4547,213870.88090212777
153.06136556681474,-27.49864808932557,1094,Coorparoo,16835,5.3318,152.34938302460006,-28.058562168999934,8622,93670.22989999429
151.01628409616134,-33.95168020137412,373,Revesby,16800,5.0925,151.74938302460006,-35.85856216899994,4382,221894.47698820804
145.20285529974012,-37.784829681273095,855,Donvale - Park Orchards,16779,20.8028,146.79938302460008,-36.75856216899994,3876,181721.5296459537
151.03188374512055,-33.927984150577764,376,Bankstown - South,16765,4.4232,149.64938302460007,-32.25856216899994,6331,225682.7610423179
145.1195648834953,-37.72860929755562,781,Montmorency - Briar Hill,16765,12.0278,145.89938302460007,-36.158562168999936,4199,187568.2251931991
151.12352353361686,-33.97648592756549,395,Kogarah Bay - Carlton - Allawah,16741,3.5033,152.94938302460005,-35.25856216899994,4712,219692.36513190213
146.29599468866041,-38.19662612074094,672,Moe - Newborough,16734,105.2835,147.09938302460006,-38.558562168999934,2899,80885.16439399133
138.68856118114564,-34.84272003152788,1624,Hope Valley - Modbury,16725,10.3124,139.44938302460005,-35.25856216899994,4667,83344.95697687718
150.89211965710376,-33.77782473273824,317,Blacktown (West),16719,4.6753,148.59938302460006,-33.75856216899994,5512,212401.29025371367
138.50630242330752,-34.894251976571745,1667,Seaton - Grange,16714,8.2533,138.09938302460006,-35.558562168999934,4499,82485.5901243519
145.0162758562402,-37.91713289963336,748,Brighton East,16701,5.6083,143.49938302460006,-39.158562168999936,2561,190996.40711706044
145.08048462561254,-37.809832471082785,724,Balwyn,16700,5.585,147.24938302460006,-38.25856216899994,3063,196818.92719254515
145.07150007914802,-37.38486124984738,802,Wallan,16700,507.7455,144.09938302460006,-36.158562168999936,4193,161400.59322500398
115.99687928406118,-32.2134040158651,1892,Byford,16690,29.3986,116.79938302460006,-32.558562168999934,6058,84659.54500727994
150.9348672651794,-33.73574164705439,318,Glenwood,16652,5.1186,150.09938302460006,-31.958562168999936,6495,212034.27651182722
151.1814346323779,-33.85683080844039,403,Balmain,16650,2.5815,153.54938302460005,-34.058562168999934,5366,220013.99536262194
145.6801885992679,-37.76801524226638,882,Yarra Valley,16640,729.7582,147.39938302460007,-37.95856216899993,3226,152755.52082495368
150.88118856615839,-33.89253702857258,539,Bonnyrigg Heights - Bonnyrigg,16636,5.1887,148.59938302460006,-34.35856216899994,5186,216749.11863273915
151.10737922197825,-34.01529424664673,561,Sylvania - Taren Point,16591,6.0725,150.24938302460006,-35.85856216899994,4377,218990.18224975243
144.96391026024162,-37.84571434695266,705,Albert Park,16540,4.6747,143.04938302460005,-37.058562168999934,3701,190600.14221059348
150.7748814901064,-33.75967015748146,491,St Marys - North St Marys,16533,12.8646,148.59938302460006,-33.158562168999936,5838,212953.51119011117
153.05106900000558,-27.67968546317171,1361,Regents Park - Heritage Park,16527,9.385,152.49938302460006,-28.35856216899994,8459,92752.919460351
151.17736042505328,-32.57517624553117,111,Singleton,16521,127.2317,151.14938302460007,-31.658562168999936,6662,101671.91767309293
144.985457383322,-37.881014587528725,706,Elwood,16509,2.553,143.94938302460005,-39.45856216899993,2400,196965.06045472494
151.22926203901775,-33.92552905792453,361,Kingsford,16471,2.0141,153.39938302460007,-33.158562168999936,5854,218770.26139188837
115.76554225468254,-31.896579196155944,1839,Scarborough,16462,4.9714,114.99938302460006,-31.35856216899994,6704,94033.04238224762
153.26623225185065,-29.420587705142793,81,Maclean - Yamba - Iluka,16440,711.0493,153.24938302460006,-29.258562168999937,7973,18032.58973640872
151.22500927049543,-33.88999882649581,355,Paddington - Moore Park,16411,3.725,153.24938302460006,-32.85856216899994,6017,220391.4819187712
142.21464057310783,-36.73168584313242,993,Horsham,16395,83.0691,142.29938302460008,-36.75856216899994,3861,8134.888151458741
153.11314914239836,-27.51046480259473,1092,Carindale,16394,10.1962,154.14938302460007,-27.458562168999936,8954,102570.8569018359
152.96880263135677,-27.3543882690628,1424,Albany Creek,16369,9.7817,152.04938302460005,-27.458562168999936,8947,91658.625259158
145.80201796235465,-38.13533020431196,653,Drouin,16368,326.806,146.94938302460005,-38.85856216899994,2736,128310.84815430545
138.61970224699314,-34.97792453969814,1641,Mitcham (SA),16346,11.4472,139.29938302460008,-35.558562168999934,4503,89299.0839500525
116.82165658266325,-20.74890111935146,1977,Karratha,16334,134.2041,116.94938302460005,-20.858562168999935,12416,18005.68090681686
150.97683140264456,-33.81315871591095,519,Wentworthville - Westmead,16322,3.9358,149.34938302460006,-32.25856216899994,6330,229856.8585521117
138.7305202687806,-34.80297586188123,1626,Redwood Park,16322,14.1403,139.59938302460006,-34.95856216899993,4830,81287.80060549088
153.29171784567012,-27.92070722953883,1297,Oxenford - Maudsland,16313,26.8573,153.24938302460006,-28.658562168999936,8299,81873.00681589977
115.85496969566962,-31.905888874331584,1844,Yokine - Coolbinia - Menora,16295,6.8505,116.34938302460006,-31.058562168999934,6872,105037.22624673332
145.04995450583894,-37.83114108802282,729,Hawthorn East,16289,3.824,143.19938302460005,-36.75856216899994,3864,202711.2200658306
144.88472280476992,-37.85909770590651,946,Williamstown,16277,7.3463,142.74938302460006,-37.658562168999936,3374,189479.26280599978
135.80160097204015,-34.7145483264585,1705,Port Lincoln,16258,136.283,135.84938302460006,-34.658562168999936,4981,7598.938084002659
150.89957201135365,-33.952161798925054,552,Casula,16223,7.0719,149.04938302460005,-35.25856216899994,4699,223158.87719011554
151.71161877353876,-32.94421163331231,224,Adamstown - Kotara,16213,8.0182,152.19938302460005,-31.958562168999936,6502,118530.99115305871
138.64111667357759,-34.93735773303645,1584,Toorak Gardens,16206,6.6869,137.64938302460007,-34.658562168999936,4987,95883.0058443658
145.13029216765966,-37.86643348408908,923,Mount Waverley - North,16175,6.484,146.79938302460008,-39.158562168999936,2572,204358.84716622654
145.2532093439097,-38.062185768967396,904,Lynbrook - Lyndhurst,16166,7.3581,146.34938302460006,-39.45856216899993,2408,181946.94957890443
150.57756117667728,-34.831230766499225,281,North Nowra - Bomaderry,16162,99.7318,149.94938302460005,-35.85856216899994,4376,127479.88012277592
153.03875373305485,-27.64451593194097,1116,Parkinson - Drewvale,16137,12.6742,152.04938302460005,-28.058562168999934,8621,107711.95794464882
138.6006656950671,-34.92860628198837,1572,Adelaide,16137,10.4824,137.64938302460007,-35.25856216899994,4661,94151.37252668287
153.29080847269327,-27.64780612708125,1050,Redland Bay,16088,46.8997,154.14938302460007,-28.058562168999934,8628,96038.18120609767
152.9053540161275,-27.68532612344562,1346,Springfield Lakes,16068,18.4141,151.89938302460007,-27.758562168999937,8783,99536.01003512712
150.82413218441772,-34.44184528426594,132,Unanderra - Mount Kembla,16018,25.1483,149.64938302460007,-35.85856216899994,4375,190157.65499285428
115.74779824271933,-32.274311238371915,1935,Rockingham,16017,35.7219,115.14938302460006,-32.85856216899994,5890,85765.21133704425
144.91859855256445,-37.651120288830086,834,Meadow Heights,15986,4.6252,143.34938302460006,-36.45856216899993,4028,192343.8236723335
153.14838356099625,-27.60356469702924,1374,Rochedale South - Priestdale,15984,13.0112,153.84938302460006,-26.858562168999935,9279,107867.16333976822
150.97311296681372,-33.874362700969435,504,Fairfield - East,15972,5.7115,148.44938302460005,-34.058562168999934,5349,234140.89071109233
145.2432157475292,-37.91939508477544,846,Rowville - Central,15969,8.2003,147.39938302460007,-37.35856216899994,3552,200227.80748233665
153.53622554815226,-28.22227649766861,257,Banora Point,15961,9.4424,153.99938302460006,-28.35856216899994,8464,47879.9882806416
146.72068012349214,-19.304093997901408,1525,Kirwan - West,15954,9.3421,146.79938302460008,-19.358562168999935,13330,10234.676645010175
150.8968713359306,-34.37089763700464,146,Corrimal - Tarrawanna - Bellambi,15950,11.0648,152.04938302460005,-35.85856216899994,4383,195641.0987911729
138.58697537409142,-34.979373964929025,1640,Colonel Light Gardens,15941,6.761,137.79938302460008,-35.558562168999934,4498,96252.10825460232
115.77582370202887,-31.83288340739912,1819,Duncraig,15941,7.6491,114.69938302460007,-31.958562168999936,6377,102783.13893930285
153.09203130431268,-27.57924691891036,1101,Eight Mile Plains,15939,7.6829,152.94938302460005,-28.658562168999936,8298,120422.94437582148
150.7335550183697,-33.7462169093507,476,Cambridge Park,15937,6.5871,148.74938302460006,-32.85856216899994,6002,209378.5312132905
115.81711124879153,-31.865036508387647,1831,Balcatta - Hamersley,15885,10.3604,116.79938302460006,-31.35856216899994,6710,108817.83534478418
153.41107067308013,-28.088841031885508,1303,Varsity Lakes,15829,5.9507,153.54938302460005,-28.658562168999936,8300,64575.42205238759
145.29117166674766,-37.80128914698473,862,Croydon - East,15779,8.0982,146.64938302460007,-36.45856216899993,4039,191753.94847352323
115.51261975031684,-32.00639993948061,1913,Fremantle,15759,29.2192,114.54938302460006,-32.25856216899994,6214,95094.27758211557
151.22097698330495,-33.91339931134532,360,Kensington (NSW),15748,2.6422,153.54938302460005,-33.45856216899993,5692,221714.51725296074
150.80867919744503,-33.635500293959886,486,Windsor - Bligh Park,15746,22.73,149.79938302460008,-31.958562168999936,6494,208613.64816767027
145.2482898015758,-38.10183643210224,902,Cranbourne West,15746,12.8981,145.29938302460008,-39.75856216899994,2241,183968.32049584528
145.23014869460098,-37.89724144880152,844,Knoxfield - Scoresby,15742,15.2651,147.24938302460006,-37.058562168999934,3715,201402.22695733287
150.83538711951468,-33.928350474103766,538,West Hoxton - Middleton Grange,15740,9.2626,148.44938302460005,-33.45856216899993,5675,227273.86843075865
151.42821054653396,-33.354197341622736,46,Chittaway Bay - Tumbi Umbi,15714,24.4986,153.09938302460006,-32.558562168999934,6179,179445.65573764747
150.45088684395657,-35.34345661201397,286,Ulladulla,15671,46.7766,150.39938302460007,-36.158562168999936,4214,90556.16330405683
144.91363918935673,-37.77708967599425,690,Ascot Vale,15667,3.8361,142.89938302460007,-38.558562168999934,2885,196673.87050126342
144.88138627605844,-37.81791044728291,952,Yarraville,15599,5.6198,142.74938302460006,-38.25856216899994,3048,193448.60490444573
152.77266389744153,-27.643633751006977,1335,Raceview,15594,9.1487,152.19938302460005,-28.35856216899994,8458,97242.62771218836
145.06961211228543,-37.745571224296306,777,Heidelberg - Rosanna,15578,6.3717,146.19938302460005,-36.158562168999936,4200,202832.60280972783
153.2858949430532,-28.819450060416017,250,Lismore,15574,63.3098,153.09938302460006,-28.958562168999936,8135,23847.44977166143
151.45831284551545,-33.24180999519621,55,Warnervale - Wadalba,15573,42.89,151.44938302460005,-31.658562168999936,6663,175567.96525993786
115.94518884511473,-31.903711406975756,1791,Bassendean - Eden Hill - Ashfield,15563,10.3449,116.94938302460005,-31.658562168999936,6548,98924.43575274297
138.46833852253928,-35.28931924592795,1644,Aldinga,15554,35.3303,138.54938302460005,-35.85856216899994,4338,63581.67757200058
145.0680698645606,-37.91481973636943,760,Bentleigh East (North),15548,4.5989,144.99938302460006,-39.75856216899994,2240,204759.42491481995
153.21076407559164,-27.49954652115478,1044,Birkdale,15485,11.5987,154.29938302460008,-27.758562168999937,8791,111212.89036481325
153.08051908105338,-27.533716924549786,1104,Mount Gravatt,15479,7.3648,151.89938302460007,-27.158562168999936,9109,124047.10190751238
138.5613069965432,-35.008540538526326,1633,Mitchell Park,15473,7.5687,137.49938302460006,-34.95856216899993,4823,97121.8608586941
152.74035290670074,-29.63538251512133,80,Grafton Region,15446,8445.8909,152.49938302460006,-29.558562168999934,7807,24848.760849296552
115.8501507543519,-32.15151631645109,1908,Success - Hammond Park,15440,8.8607,116.64938302460006,-32.85856216899994,5895,108573.83709957718
153.28672835169195,-27.586937951241392,1053,Victoria Point,15424,13.4057,154.29938302460008,-27.158562168999936,9117,110855.37983386565
147.01360390503578,-36.059623874105675,174,Albury - East,15413,101.514,147.09938302460006,-36.158562168999936,4203,13422.784621327744
150.96178811265509,-31.092405065922197,205,Tamworth - North,15410,76.0423,151.14938302460007,-31.058562168999934,6988,18291.504752779954
153.2718814465546,-28.75553034574477,251,Lismore Region,15384,1233.2421,152.79938302460008,-28.958562168999936,8134,51302.23635789964
152.0059014277174,-28.232540602678284,1230,Warwick,15378,158.7232,151.89938302460007,-28.35856216899994,8457,17441.745603945128
116.0431122634343,-31.960942419867628,1890,Kalamunda - Maida Vale - Gooseberry Hill,15377,28.1238,117.09938302460006,-31.958562168999936,6385,99857.15566673646
145.1693611462632,-37.76949778180319,737,Doncaster East (North),15361,6.4029,147.09938302460006,-36.75856216899994,3877,204683.352568104
151.7303022610871,-32.89140443559086,229,Mayfield - Warabrook,15314,7.5372,152.94938302460005,-32.25856216899994,6342,134270.87817720455
151.45342695622446,-33.08282024144893,220,Morisset - Cooranbong,15311,330.5208,151.74938302460006,-31.658562168999936,6664,160370.67987879462
153.39592601975423,-27.96512007300362,1307,Southport - North,15310,7.6161,153.84938302460006,-28.658562168999936,8301,88788.04568903828
138.50535380750017,-34.917773325030474,1664,Henley Beach,15303,5.9563,137.79938302460008,-34.35856216899994,5150,89655.82729560202
144.73346488360335,-37.91140271692269,972,Point Cook - South,15299,9.4222,143.04938302460005,-38.85856216899994,2723,180840.7454428267
153.26084795083383,-27.567570531670388,1052,Thornlands,15299,21.6475,154.14938302460007,-26.858562168999935,9280,117983.07458461515
153.26727400183208,-27.53307508356206,1048,Cleveland,15292,11.8548,153.69938302460005,-26.558562168999938,9441,116173.79973728488
138.54048858983143,-35.0125497880976,1636,Warradale,15279,6.0145,138.24938302460006,-35.85856216899994,4337,97511.47864082128
153.1410149433271,-27.449856844383092,1062,Wynnum West - Hemmant,15266,12.2743,152.04938302460005,-26.858562168999935,9273,126492.07586810274
115.89587240641235,-31.96517345614108,1873,Victoria Park - Lathlain - Burswood,15264,7.5755,115.14938302460006,-31.058562168999934,6868,123013.12467270978
149.17997450861873,-21.09395117764086,1384,Andergrove - Beaconsfield,15259,17.556,149.19938302460005,-21.158562168999936,12360,7431.866789540142
151.53095579804508,-33.30395392676659,52,The Entrance,15237,13.8576,152.04938302460005,-31.658562168999936,6665,188852.71631434184
152.856777588032,-25.29659010190242,1563,Torquay - Scarness - Kawungan,15197,10.9419,152.79938302460008,-25.358562168999935,10090,8973.14680686973
153.0859092856171,-26.540625865479292,1467,Coolum Beach,15174,18.1108,153.54938302460005,-26.258562168999937,9604,55813.18069362432
153.46336665435945,-28.1161983678985,1275,Palm Beach,15157,6.3315,154.29938302460008,-28.35856216899994,8465,86337.21573894763
115.77470608478355,-32.069625738283186,1914,Fremantle - South,15151,7.3037,114.69938302460007,-32.558562168999934,6051,114865.4222237138
145.28341967505617,-37.89287400535205,853,Ferntree Gully (South) - Upper Ferntree Gully,15149,9.1499,147.39938302460007,-38.558562168999934,2900,199469.56884309597
153.06339199816256,-27.06337752349426,1404,Beachmere - Sandstone Point,15148,110.0961,152.19938302460005,-26.558562168999938,9436,102505.37469402816
153.07659574174855,-27.598127998436883,1119,Runcorn,15146,6.6898,152.64938302460007,-28.658562168999936,8297,124782.93649511275
115.84254809447724,-32.03527430193663,1925,Booragoon,15118,6.7888,115.89938302460007,-33.158562168999936,5729,124678.2647311452
144.3215482857143,-38.10212755037861,624,North Geelong - Bell Park,15109,21.9322,142.59938302460006,-37.95856216899993,3210,152040.53347234963
147.14883614964157,-35.14667439711983,275,Wagga Wagga Region,15107,9334.6875,147.09938302460006,-34.95856216899993,4855,21350.80773369134
144.92129905521224,-37.765717415228714,693,Moonee Ponds,15084,4.3551,143.79938302460008,-36.158562168999936,4192,204427.69757815026
138.6470471752571,-34.83011179531372,1611,Ingle Farm,15072,7.4263,138.24938302460006,-34.058562168999934,5315,93061.34751591219
146.79101943480882,-36.11735851258369,650,West Wodonga,15071,153.8763,146.49938302460006,-36.158562168999936,4201,26645.244619627338
140.82638992874865,-37.83214216422573,1730,Mount Gambier - East,15071,66.7535,140.79938302460008,-37.95856216899993,3204,14231.167951509386
151.1278564980804,-33.830120274581795,523,Gladesville - Huntleys Point,15070,4.7162,153.69938302460005,-33.75856216899994,5529,238275.13818100255
152.82857254670947,-31.08141831913657,157,Kempsey,15058,195.1562,152.94938302460005,-31.058562168999934,6994,11805.014106862147
149.05806159796217,-35.38632141941994,2263,Kambah,15008,11.3361,149.19938302460005,-35.558562168999934,4536,23015.03918146907
138.5433434367582,-34.984607660943624,1634,Morphettville,14947,6.2005,138.84938302460006,-35.85856216899994,4339,100865.18890973357
151.1670568333025,-33.86742472387409,405,Lilyfield - Rozelle,14933,3.6039,153.54938302460005,-34.658562168999936,5040,236307.17388347516
138.53439477156502,-34.906535608805605,1663,Flinders Park,14918,6.3834,137.94938302460005,-34.058562168999934,5314,108331.64291325308
138.65837723188068,-34.804016838962596,1612,Para Hills,14915,10.173,139.14938302460007,-34.058562168999934,5318,94204.72553250806
138.59271051201543,-34.88403368726,1592,Prospect,14908,5.4754,139.74938302460006,-34.658562168999936,4994,108800.47427598665
144.90432076436335,-37.580505402321826,841,Craigieburn - West,14905,6.2118,144.84938302460006,-35.85856216899994,4359,191144.79242314553
153.0975617464795,-27.673493872555817,1359,Marsden,14903,6.9167,152.34938302460006,-28.658562168999936,8296,131588.1147345694
147.61390429709112,-37.829205813612774,658,Bairnsdale,14887,155.0115,147.69938302460005,-37.95856216899993,3227,16207.061155287276
115.93436951766036,-31.94146541590135,1868,Belmont - Ascot - Redcliffe,14876,10.8529,116.64938302460006,-31.058562168999934,6873,119150.08895340326
143.80255024423417,-37.49755742713587,585,Wendouree - Miners Rest,14858,67.5734,142.74938302460006,-37.058562168999934,3700,105346.60829204204
145.0464748979462,-37.74294366833256,778,Heidelberg West,14840,6.6912,145.14938302460007,-35.85856216899994,4360,209311.79796783018
145.1245698346045,-38.05672825534206,765,Chelsea - Bonbeach,14810,5.423,144.69938302460005,-39.75856216899994,2239,192487.3606311581
138.58080861754615,-35.54160649396524,1720,Victor Harbor,14786,128.2644,139.14938302460007,-35.85856216899994,4340,62327.85121988104
147.05622549850278,-38.104493862596016,680,Sale,14783,45.6023,147.54938302460005,-38.25856216899994,3064,46470.79985594614
142.110831875547,-34.22076231904237,1005,Mildura - South,14775,50.9981,141.99938302460006,-34.35856216899994,5164,18410.175864736506
144.77055449192434,-37.73898438835522,933,Kings Park (Vic.),14769,4.4323,142.59938302460006,-37.35856216899994,3536,196454.4745007082
138.491873043442,-34.83626236930759,1671,Largs Bay - Semaphore,14767,6.7241,137.49938302460006,-34.35856216899994,5149,105344.4272113745
144.41767179446066,-38.17974025570759,622,Newcomb - Moolap,14757,43.2941,143.19938302460005,-39.158562168999936,2560,151813.37467808963
115.86733043460437,-31.99970484627339,1895,Como,14747,6.3895,114.54938302460006,-31.658562168999936,6540,130377.89682513905
153.43222550188347,-28.087117651427015,1267,Burleigh Waters,14745,6.7193,154.14938302460007,-28.658562168999936,8302,94615.80317370062
146.94156233837714,-36.03170952295918,178,Lavington,14737,21.467,146.94938302460005,-35.85856216899994,4366,19224.349875682157
151.1528197787216,-33.96140807119038,396,Monterey - Brighton-le-Sands - Kyeemagh,14728,3.3799,152.79938302460008,-35.558562168999934,4548,232624.06159351024
145.15641418015755,-37.791322943358246,738,Doncaster East (South),14725,4.7684,147.54938302460005,-37.658562168999936,3390,211479.05160582173
144.8361395971473,-37.83581916396162,943,Altona North,14724,16.1844,143.64938302460007,-39.45856216899993,2399,207654.28582888006
117.89964286776042,-35.00836426879264,1941,Albany,14691,30.5001,117.99938302460006,-34.95856216899993,4758,10652.03932444491
144.77210080961692,-36.16368621755767,1012,Echuca,14688,183.8175,144.54938302460005,-35.85856216899994,4358,39361.54712035399
144.27011970519789,-36.748392977684766,595,Bendigo,14686,15.974,143.49938302460006,-36.158562168999936,4191,95171.69209814147
145.3039545704582,-38.02480852555377,897,Narre Warren - South West,14661,9.3054,147.24938302460006,-38.85856216899994,2737,193419.43988014813
150.71939283926542,-34.57682388535519,137,Albion Park - Macquarie Pass,14653,75.1256,150.69938302460005,-36.158562168999936,4215,175492.53841139714
153.14927271814824,-28.095744293753807,1283,Tamborine - Canungra,14652,524.1823,152.49938302460006,-28.958562168999936,8133,114845.18103142406
150.89599500312923,-34.425583990911505,151,Wollongong - East,14649,5.5037,150.99938302460006,-36.158562168999936,4216,192489.56209085396
138.49010388640838,-34.86862552860922,1668,West Lakes,14630,8.5515,137.34938302460006,-34.658562168999936,4986,107004.10632736798
144.94234947779185,-37.76311460495609,684,Brunswick West,14629,3.1795,142.89938302460007,-36.75856216899994,3863,212767.59355977736
115.83363036773466,-32.26060073467798,1916,Bertram - Wellard (West),14610,12.4479,116.19938302460007,-33.158562168999936,5730,105318.27994808597
152.53212344283008,-32.2214461041683,154,Forster,14607,33.873,152.79938302460008,-31.958562168999936,6504,38551.9947900295
115.78430839292864,-31.91695749418647,1843,Wembley Downs - Churchlands - Woodlands,14591,8.0214,114.69938302460007,-31.35856216899994,6703,120107.74750154786
150.6583025150335,-33.746017283596196,478,Emu Plains - Leonay,14566,13.794,148.89938302460007,-32.558562168999934,6165,210400.62223599353
144.9694302223463,-37.70523124401176,823,Fawkner,14558,5.0848,145.44938302460005,-35.85856216899994,4361,209354.59304604324
151.61472654210712,-32.91363524836285,219,Edgeworth - Cameron Park,14552,15.6077,152.34938302460006,-31.658562168999936,6666,155427.12628143054
145.22612642143832,-37.852256642187804,849,Wantirna,14546,8.3064,145.59938302460006,-39.75856216899994,2242,214085.36562229408
122.22307258981918,-17.944596716044625,1967,Broome,14518,50.0425,122.34938302460006,-17.858562168999935,14064,16425.79904699007
138.49921145112245,-34.79152495592899,1672,North Haven,14455,14.8433,139.59938302460006,-34.35856216899994,5156,111794.00580726615
145.69308762103373,-16.814707280316686,1183,Trinity Beach - Smithfield,14450,22.1512,145.74938302460006,-16.658562168999936,14794,18291.783569747033
151.2649847143313,-33.75151396561096,443,Beacon Hill - Narraweena,14428,4.3406,153.69938302460005,-34.35856216899994,5203,234625.4580256492
152.67112748587564,-26.17660926276415,1555,Gympie - North,14427,42.6859,152.79938302460008,-25.958562168999936,9764,27353.302686319184
152.95856606839646,-27.158453640435027,1414,Burpengary,14420,22.3343,152.34938302460006,-26.258562168999937,9600,116683.82234964524
140.71996046574358,-37.80744999503754,1731,Mount Gambier - West,14386,126.5343,140.64938302460007,-37.658562168999936,3367,17657.193344483825
145.28494438571778,-37.87732005816374,852,Ferntree Gully (North),14382,6.9851,146.64938302460007,-39.45856216899993,2409,211917.23955726216
152.5769788067312,-27.441432944559402,1323,Lowood,14376,617.6974,151.74938302460006,-27.458562168999936,8946,81837.68167617686
145.11254393914143,-37.763799272600274,736,Templestowe Lower,14375,5.9386,146.94938302460005,-36.45856216899993,4040,218252.15028350643
115.74199717538119,-31.726351506621693,1818,Currambine - Kinross,14371,5.9596,115.59938302460006,-30.758562168999937,7032,108153.8536922993
138.00333675893063,-33.1886959023388,1694,Port Pirie,14360,75.2928,138.09938302460006,-33.158562168999936,5803,9561.556461668817
151.07701176220846,-33.9487201575713,386,Narwee - Beverly Hills,14337,3.3909,153.39938302460007,-34.95856216899993,4876,241014.2439326137
150.84599472224062,-34.47787401384596,133,Berkeley - Lake Heights - Cringila,14336,12.5307,151.29938302460008,-36.158562168999936,4217,190962.49098439925
145.16732648436675,-37.667539187775084,795,Wattle Glen - Diamond Creek,14330,26.8245,145.74938302460006,-35.85856216899994,4362,207358.52760818833
151.74353573467096,-32.947160892873214,230,Merewether - The Junction,14315,7.2464,153.24938302460006,-32.25856216899994,6343,160661.5897790361
153.03048655035846,-27.4060331234172,1072,Kedron - Gordon Park,14299,5.22,153.99938302460006,-26.558562168999938,9442,134417.14052699797
121.46911142596183,-30.758408642215308,1984,Kalgoorlie,14299,23.4948,121.59938302460006,-30.758562168999937,7052,12473.146894264535
152.88714301688202,-27.65164385652178,1338,Bellbird Park - Brookwater,14294,16.103,151.74938302460006,-28.058562168999934,8620,120795.43749350983
115.81488226559202,-31.889895638792368,1840,Stirling - Osborne Park,14293,6.4972,115.89938302460007,-30.758562168999937,7033,125688.25131592418
115.78596891182119,-32.035828972056215,1924,Bicton - Palmyra,14264,6.3221,114.84938302460006,-32.85856216899994,5889,126805.5937450567
115.9214225647775,-32.039527342114184,1878,Parkwood - Ferndale - Lynwood,14259,8.6347,117.09938302460006,-32.558562168999934,6059,124988.39949944375
144.3421086368721,-38.17852276893656,614,Belmont,14255,9.3677,142.59938302460006,-38.558562168999934,2884,158035.67830390728
152.91921953264168,-28.137739681994205,1347,Beaudesert,14242,1628.0131,152.04938302460005,-28.658562168999936,8295,102945.83974153959
151.40261844828603,-33.42318165964014,30,Erina - Green Point,14240,33.7934,150.84938302460006,-31.658562168999936,6661,202463.42611108898
150.61278642076616,-35.103542248310035,283,St Georges Basin - Erowal Bay,14219,76.9396,150.09938302460006,-36.158562168999936,4213,125952.34918434828
138.5224074632525,-35.01883923522272,1628,Brighton (SA),14212,5.9168,137.94938302460005,-35.85856216899994,4336,106707.2048048915
151.07556308686503,-33.935104667676164,381,Roselands,14208,3.6461,152.34938302460006,-35.85856216899994,4384,243071.45443568903
151.30577446481777,-33.48504836357457,41,Woy Woy - Blackwall,14181,17.4225,150.54938302460005,-31.658562168999936,6660,214633.78183311597
151.9337683548471,-27.605279205908175,1489,Darling Heights,14173,12.536,151.59938302460006,-27.758562168999937,8782,37103.682669339454
145.0376922477228,-37.98084213760814,746,Beaumaris,14172,5.9678,144.39938302460007,-39.75856216899994,2238,204970.91981600987
145.49623403072175,-37.62613207166197,872,Healesville - Yarra Glen,14172,369.5236,147.54938302460005,-37.058562168999934,3716,192528.4478313373
115.75153065704451,-32.37340886252411,1934,Port Kennedy,14155,21.2107,115.29938302460006,-33.158562168999936,5727,96830.18926324324
152.81818328325437,-25.28567591695263,1561,Pialba - Eli Waters,14137,18.7194,152.94938302460005,-25.058562168999938,10254,28422.115709633043
150.74955228716126,-33.589929006162016,485,Richmond - Clarendon,14136,74.6728,149.49938302460006,-31.958562168999936,6493,215515.19165488356
116.03094130926506,-32.0602169739923,1886,Maddington - Orange Grove - Martin,14133,53.2922,117.24938302460006,-32.25856216899994,6223,117023.13718204285
151.1392496587623,-33.882750139634,411,Haberfield - Summer Hill,14129,3.4746,153.24938302460006,-35.25856216899994,4713,246539.40075038018
151.75673565228215,-32.77029195532667,121,Raymond Terrace,14107,109.4864,153.09938302460006,-31.958562168999936,6505,155147.68467501478
144.929403032338,-37.684099898754155,830,Broadmeadows,14106,8.8268,144.24938302460006,-35.85856216899994,4357,211479.48081613786
145.30937520093858,-38.005080078771726,896,Narre Warren - North East,14091,4.874,145.89938302460007,-39.75856216899994,2243,201273.0935429693
145.04151304480857,-37.90029076465055,759,Ormond - Glen Huntly,14089,2.9371,144.09938302460006,-39.75856216899994,2237,221912.15315775303
137.82982475508257,-32.49959813522523,1714,Port Augusta,14078,253.9026,137.79938302460008,-32.558562168999934,6128,7136.71358621319
145.01771128048856,-37.84159228177223,715,Toorak,14072,4.3233,142.44938302460005,-37.658562168999936,3373,227257.00416539694
146.34495011142207,-41.177160426864134,2085,Devonport,14069,10.2768,146.34938302460006,-41.25856216899994,1430,9047.77493957141
115.77481217291906,-31.74587916342845,1824,Joondalup - Edgewater,14062,15.6229,114.84938302460006,-31.058562168999934,6867,116416.84880127558
145.26088328456987,-37.98342750609798,895,Endeavour Hills - South,14061,5.5873,147.09938302460006,-39.158562168999936,2573,206602.95170993608
151.6377454577388,-32.875501397709414,228,Maryland - Fletcher - Minmi,14031,17.2635,151.59938302460006,-31.35856216899994,6826,168242.93425528466
146.86707064573736,-37.8423750235708,678,Maffra,14031,2532.3197,147.84938302460006,-37.658562168999936,3391,88944.53181895004
144.81293803847507,-37.72643177124261,932,Keilor Downs,14024,7.6597,143.04938302460005,-36.45856216899993,4027,210660.2387662097
151.89318954090484,-32.71721976425675,124,Williamtown - Medowie - Karuah,14016,365.182,153.39938302460007,-32.558562168999934,6180,142425.1250649531
115.88669250969089,-32.03441334002939,1879,Riverton - Shelley - Rossmoyne,14016,6.4202,116.94938302460005,-32.85856216899994,5896,135416.85552272334
146.42115295761147,-38.20760212028924,673,Morwell,14008,85.4861,147.69938302460005,-38.558562168999934,2901,118285.66152518844
148.1625225465322,-23.535395225427713,1233,Emerald,13982,38.9821,148.29938302460008,-23.558562168999938,11053,14208.038868512784
144.98339237816305,-37.24633650406273,633,Kilmore - Broadford,13971,461.5232,143.94938302460005,-35.85856216899994,4356,179677.91394700692
151.23916334804514,-33.91972765630674,366,Randwick - South,13946,3.3726,153.84938302460006,-34.058562168999934,5367,241668.08030969193
151.31578742930517,-33.65194332119062,441,Newport - Bilgola,13927,5.7981,153.54938302460005,-32.85856216899994,6018,225967.73635501068
151.42817903155395,-33.44501226060235,38,Terrigal - North Avoca,13909,10.1073,153.69938302460005,-33.158562168999936,5855,213900.6273023319
145.06535694515478,-37.92938064102826,761,Bentleigh East (South),13907,4.5882,146.19938302460005,-39.75856216899994,2244,225661.06219592752
152.98203648484053,-27.444481692875566,1173,Ashgrove,13901,6.5216,151.74938302460006,-26.858562168999935,9272,138360.47312852892
138.58158917820285,-35.08695348001485,1652,Happy Valley,13882,10.17,139.59938302460006,-35.558562168999934,4504,106314.3835477768
145.04533509394506,-37.63582064443629,805,Epping - East,13879,7.7691,146.04938302460005,-35.85856216899994,4363,216645.06021291175
151.22308460868524,-23.88725495500382,1258,Clinton - New Auckland,13874,22.7815,151.14938302460007,-23.858562168999935,10900,8151.687971243062
145.27836373605027,-37.788911004785824,863,Croydon - West,13837,6.7979,147.69938302460005,-37.35856216899994,3553,219138.14988579057
138.56516261533915,-34.97798564790206,1630,Edwardstown,13834,5.5375,139.74938302460006,-35.25856216899994,4668,112350.39640467083
153.33957173919615,-27.846948652507574,1292,Coomera,13807,24.6577,154.44938302460005,-28.058562168999934,8629,111702.49561659525
151.5586649809998,-33.01625221395906,221,Toronto - Awaba,13801,43.6626,151.29938302460008,-31.35856216899994,6825,185431.95158295386
138.6041624104351,-34.802158235081045,1619,Mawson Lakes - Globe Derby Park,13795,9.6165,139.44938302460005,-34.058562168999934,5319,113311.30849758134
115.8047013116727,-31.831717025228986,1820,Greenwood - Warwick,13782,8.5644,116.19938302460007,-30.758562168999937,7034,124772.81793958883
115.84373659424018,-31.72318866103026,1854,Tapping - Ashby - Sinagra,13765,47.8116,115.29938302460006,-30.758562168999937,7031,118855.91362269908
145.31279582444503,-38.05923333464283,906,Narre Warren South (East),13756,6.2204,146.94938302460005,-39.45856216899993,2410,210625.22662888892
151.64100570131689,-32.963186432859345,216,Warners Bay - Boolaroo,13753,12.5402,151.89938302460007,-31.35856216899994,6827,179589.423003997
138.535670889244,-35.1200473475391,1656,Morphett Vale - East,13712,7.6836,137.49938302460006,-35.558562168999934,4497,106030.84510272079
145.06871287907225,-37.981576220249735,769,Mentone,13709,4.45,143.34938302460006,-39.45856216899993,2398,221893.07117393843
153.16718193475745,-27.440475594824864,1061,Wynnum,13691,6.1324,154.44938302460005,-27.458562168999936,8955,126773.76379291686
153.21927138934075,-27.698684222948337,1349,Eagleby,13690,13.816,154.59938302460006,-27.758562168999937,8792,136253.84622782943
144.31561118779885,-36.75225867062913,597,East Bendigo - Kennington,13663,17.1489,143.64938302460007,-35.85856216899994,4355,115820.10133683783
151.95501250296135,-27.574886460926958,1499,Toowoomba - Central,13662,9.5179,151.44938302460005,-27.458562168999936,8945,51592.20909534674
150.6969909643833,-33.74783904254185,483,Penrith,13630,10.3941,148.29938302460008,-33.75856216899994,5511,222146.8613759067
145.40284533268417,-38.04675716648792,883,Beaconsfield - Officer,13622,41.1778,147.54938302460005,-38.85856216899994,2738,207912.0967175866
150.30934209187328,-33.70267948316482,471,Katoomba - Leura,13613,40.8734,148.29938302460008,-33.158562168999936,5837,196421.1353132369
145.21512889676669,-38.10133153495202,981,Skye - Sandhurst,13613,19.8152,146.49938302460006,-39.75856216899994,2245,215045.51924874075
151.92310901325297,-27.526169940707216,1502,Wilsonton,13600,18.9445,151.59938302460006,-27.158562168999936,9108,51819.7260297951
153.0455640247606,-27.466313284597053,1150,New Farm,13578,2.1438,151.89938302460007,-26.558562168999938,9435,151839.3537407621
153.5521521914182,-28.258032552810008,252,Kingscliff - Fingal Head,13514,38.4355,153.99938302460006,-28.958562168999936,8138,89109.65360114037
153.5084037397261,-28.40026351856199,255,Pottsville,13497,189.4635,153.54938302460005,-29.258562168999937,7974,95206.67969111203
144.57601330990755,-38.17393165095372,625,Clifton Springs,13494,65.1494,142.74938302460006,-38.85856216899994,2722,176505.3431971537
153.00447053226947,-27.498021851742813,1137,St Lucia,13487,3.4245,154.44938302460005,-26.858562168999935,9281,159760.22998405463
151.9634852698947,-27.423040320664178,1493,Highfields,13464,149.2803,151.29938302460008,-27.758562168999937,8781,75375.80709115857
115.80052193519923,-31.810347012113834,1825,Kingsley,13449,7.8538,117.09938302460006,-31.35856216899994,6711,133073.9399148566
145.12531526264013,-37.943233439522224,909,Clayton South,13443,7.938,143.79938302460008,-39.75856216899994,2236,232068.37615546578
150.94799935736705,-33.804178988390674,518,Pendle Hill - Girraween,13412,4.4615,149.04938302460005,-32.25856216899994,6329,246653.24821239559
153.33162695364857,-28.82277142481632,248,Goonellabah,13405,25.2269,152.94938302460005,-29.258562168999937,7972,60983.52292181137
151.84498321866715,-27.565380747135116,1501,Toowoomba - West,13401,161.2954,151.44938302460005,-28.058562168999934,8619,67126.94352039004
148.98179296017452,-20.260673920173822,1401,Airlie - Whitsundays,13399,304.0111,149.04938302460005,-20.258562168999937,12849,7065.4735982879465
115.72653107469918,-31.694402801167566,1848,Clarkson,13393,10.7632,114.99938302460006,-30.758562168999937,7030,124759.74725436837
115.89983603356107,-31.936584811198458,1793,Maylands,13357,5.0165,117.24938302460006,-31.658562168999936,6549,131470.5369113587
144.55520303220246,-37.49550014703865,818,Gisborne,13345,211.0569,143.19938302460005,-36.158562168999936,4190,191417.1952741663
138.6277871562913,-34.9037556070232,1590,St Peters - Marden,13332,5.9826,139.89938302460007,-34.95856216899993,4831,116341.10631633074
151.2161065354731,-33.76658740304212,446,Forestville - Killarney Heights,13326,8.9311,153.84938302460006,-33.45856216899993,5693,246751.10373833508
145.10753513585587,-38.02829976639318,768,Edithvale - Aspendale,13307,5.1001,145.14938302460007,-40.058562168999934,2078,225415.27886078513
151.11051257252268,-33.941698274796266,393,Kingsgrove (South) - Bardwell Park,13299,3.7871,151.59938302460006,-36.158562168999936,4218,249943.50232247036
145.1479238737716,-37.97108191778573,916,Springvale South,13285,4.56,144.84938302460006,-40.058562168999934,2077,233174.58861740778
150.4191005379939,-34.48671442028535,288,Bowral,13280,55.572,148.59938302460006,-34.95856216899993,4860,174705.1371125056
153.07642231868218,-27.466180106063188,1158,Morningside - Seven Hills,13279,6.6452,153.84938302460006,-26.258562168999937,9605,154279.25472494395
145.6911996504564,-16.894502729406895,1182,Redlynch,13278,59.3881,145.59938302460006,-16.958562168999936,14630,12079.849732202309
150.68216062882783,-34.06547600868274,452,Camden - Ellis Lane,13277,26.1934,148.44938302460005,-34.658562168999936,5023,215674.97430017692
144.81506339414025,-37.86036384169665,941,Altona,13277,17.6847,142.89938302460007,-39.158562168999936,2559,220640.18639620233
144.76751469145108,-37.539467729079846,828,Sunbury,13272,129.5488,142.59938302460006,-36.75856216899994,3862,211209.0726933477
116.73031078721102,-22.498066619209883,1976,Ashburton (WA),13262,100827.032,116.79938302460006,-22.358562168999935,11600,17005.335486116623
145.68259418159911,-33.90219252556779,261,Griffith Region,13238,23020.2043,145.59938302460006,-33.75856216899994,5502,17695.292587230637
151.03026756156504,-33.74991395170445,297,West Pennant Hills,13224,7.8291,150.24938302460006,-31.658562168999936,6659,243200.39348922542
152.9120870353541,-27.77735739472348,1362,Greenbank,13224,258.4524,151.59938302460006,-28.35856216899994,8456,144221.06827661666
